bin,obs,time,deployment,bin_1_distance,cell_length,correlation_magnitude_beam1,correlation_magnitude_beam2,correlation_magnitude_beam3,correlation_magnitude_beam4,driver_timestamp,echo_intensity_beam1,echo_intensity_beam2,echo_intensity_beam3,echo_intensity_beam4,ensemble_number,error_velocity,heading,ingestion_timestamp,internal_timestamp,num_cells,percent_bad_beams,percent_good_3beam,percent_good_4beam,percent_transforms_reject,pitch,port_timestamp,preferred_timestamp,pressure,quality_flag,roll,salinity,sysconfig_vertical_orientation,temperature,transducer_depth,water_velocity_east,water_velocity_north,water_velocity_up,corrected_echo_intensity_beam1,corrected_echo_intensity_beam2,corrected_echo_intensity_beam3,corrected_echo_intensity_beam4,eastward_seawater_velocity,northward_seawater_velocity,upward_seawater_velocity,error_seawater_velocity,bin_depths,lat,lon
0,0,3731189591.13,7,2432,1600,129,129,128,129,3732270748.77,177,180,176,188,46,6,2893,3732270811.98,3731189400.0,30,0,0,100,0,-45,3731189591.13,port_timestamp,535284,ok,60,35,1,523,5330,-93,-55,-1,79.65,81.0,79.2,84.6,-0.104449857406,-0.027644661109,-0.001,0.006,505.842711359,46.85302,-124.95792
0,1,3731193191.16,7,2432,1600,130,130,126,123,3732270748.78,181,178,165,176,47,-3,2897,3732270811.98,3731193000.0,30,0,0,100,0,-45,3731193191.16,port_timestamp,536241,ok,58,35,1,498,5339,-44,-52,-10,81.45,80.1,74.25,79.2,-0.0564798618681,-0.0380791964642,-0.01,-0.003,506.789333022,46.85302,-124.95792
0,2,3731196794.11,7,2432,1600,130,130,125,132,3732270748.78,166,177,167,183,48,-7,2896,3732270811.98,3731196600.0,30,0,0,100,0,-45,3731196794.11,port_timestamp,537020,ok,59,35,1,500,5347,-27,27,-7,74.7,79.65,75.15,82.35,-0.0186425920413,0.0333234716376,-0.007,-0.007,507.55988183,46.85302,-124.95792
0,3,3731200391.21,7,2432,1600,131,131,126,128,3732270748.79,177,184,169,178,49,15,2894,3732270811.98,3731200200.0,30,0,0,100,0,-45,3731200391.21,port_timestamp,537004,ok,59,35,1,499,5347,28,113,0,79.65,82.8,76.05,80.1,0.0576664662479,0.101131491982,0.0,0.015,507.544055439,46.85302,-124.95792
0,4,3731203991.24,7,2432,1600,133,133,128,132,3732270748.79,176,187,179,185,50,-10,2889,3732270811.98,3731203800.0,30,0,0,100,0,-45,3731203991.24,port_timestamp,537011,ok,59,35,1,494,5347,-36,81,13,79.2,84.15,80.55,83.25,-0.0126227230582,0.0877363485825,0.013,-0.01,507.550979485,46.85302,-124.95792
0,5,3731207591.27,7,2432,1600,130,130,132,135,3732270748.79,179,171,178,184,51,13,2895,3732270811.98,3731207400.0,30,0,0,100,0,-45,3731207591.27,port_timestamp,537340,ok,60,35,1,494,5350,-30,41,-5,80.55,76.95,80.1,82.8,-0.0177234416096,0.0476117592356,-0.005,0.013,507.87640939,46.85302,-124.95792
0,6,3731211191.3,7,2432,1600,136,131,132,129,3732270748.8,184,183,176,181,52,1,2893,3732270811.98,3731211000.0,30,0,0,100,0,-45,3731211191.3,port_timestamp,536688,ok,60,35,1,494,5344,-20,25,5,82.8,82.35,79.2,81.45,-0.0124499867347,0.0294957256277,0.005,0.001,507.231483973,46.85302,-124.95792
0,7,3731214791.32,7,2432,1600,135,133,128,122,3732270748.8,184,184,176,183,53,-31,2893,3732270811.98,3731214600.0,30,0,0,100,0,-45,3731214791.32,port_timestamp,536862,ok,61,35,1,494,5345,-79,14,7,82.8,82.8,79.2,82.35,-0.0722182725238,0.0349502662891,0.007,-0.031,507.403596168,46.85302,-124.95792
0,8,3731218391.52,7,2432,1600,124,135,131,117,3732270748.8,163,189,180,164,54,-23,2892,3732270811.99,3731218200.0,30,0,4,95,0,-45,3731218391.52,port_timestamp,536215,ok,62,35,1,491,5339,-72,6,-5,73.35,85.05,81.0,73.8,-0.0676568760612,0.0253485132038,-0.005,-0.023,506.76361504,46.85302,-124.95792
0,9,3731221991.48,7,2432,1600,127,133,127,129,3732270748.86,169,179,164,190,55,-7,2888,3732270811.99,3731221800.0,30,0,0,100,0,-45,3731221991.48,port_timestamp,535818,ok,63,35,1,491,5335,-37,16,-1,76.05,80.55,73.8,85.5,-0.0312564867144,0.025456473406,-0.001,-0.007,506.370920847,46.85302,-124.95792
0,10,3731225591.5,7,2432,1600,135,134,129,132,3732270748.86,190,187,175,181,56,7,2891,3732270811.99,3731225400.0,30,0,0,100,0,-45,3731225591.5,port_timestamp,535235,ok,64,35,1,490,5329,-48,-4,1,85.5,84.15,78.75,81.45,-0.0472795291662,0.00920033270194,0.001,0.007,505.794242631,46.85302,-124.95792
0,11,3731229191.54,7,2432,1600,126,134,128,131,3732270748.87,170,182,173,188,57,6,2891,3732270811.99,3731229000.0,30,0,0,100,0,-44,3731229191.54,port_timestamp,535603,ok,63,35,1,492,5333,-85,-43,3,76.5,81.9,77.85,84.6,-0.0934887636175,-0.0182715920835,0.003,0.006,506.158252396,46.85302,-124.95792
0,12,3731232791.58,7,2432,1600,129,127,133,131,3732270748.87,175,178,186,183,58,-5,2892,3732270811.99,3731232600.0,30,0,0,100,0,-45,3731232791.58,port_timestamp,535521,ok,63,35,1,499,5332,-91,-36,5,78.75,80.1,83.7,82.35,-0.0973596937083,-0.00990404165149,0.005,-0.005,506.07714158,46.85302,-124.95792
0,13,3731236391.62,7,2432,1600,126,127,130,120,3732270748.87,177,182,176,175,59,-15,2894,3732270811.99,3731236200.0,30,0,0,100,0,-45,3731236391.62,port_timestamp,536306,ok,63,35,1,499,5340,-77,8,1,79.65,81.9,79.2,78.75,-0.0719248123427,0.0286325229323,0.001,-0.015,506.853627961,46.85302,-124.95792
0,14,3731239991.66,7,2432,1600,133,134,129,128,3732270748.88,177,180,190,190,60,-8,2888,3732270811.99,3731239800.0,30,0,0,100,0,-45,3731239991.66,port_timestamp,536994,ok,63,35,1,511,5347,-41,12,-5,79.65,81.0,85.5,85.5,-0.0361932973274,0.0226946079184,-0.005,-0.008,507.534163944,46.85302,-124.95792
0,15,3731243591.97,7,2432,1600,123,126,131,112,3732270748.88,168,173,176,178,61,-10,2885,3732270811.99,3731243400.0,30,0,0,100,0,-45,3731243591.97,port_timestamp,537108,ok,61,35,1,515,5348,2,-9,-7,75.6,77.85,79.2,80.1,-0.000522144240899,-0.00920474689449,-0.007,-0.01,507.646926957,46.85302,-124.95792
0,16,3731247191.75,7,2432,1600,128,127,133,133,3732270748.88,186,187,189,185,62,13,2883,3732270812.0,3731247000.0,30,0,0,100,0,-45,3731247191.75,port_timestamp,537537,ok,62,35,1,516,5352,0,13,-7,83.7,84.15,85.05,83.25,0.00353428582873,0.0125103486634,-0.007,0.013,508.071271428,46.85302,-124.95792
0,17,3731250791.79,7,2432,1600,125,130,112,130,3732270748.89,167,186,164,184,63,21,2886,3732270812.0,3731250600.0,30,0,0,100,0,-45,3731250791.79,port_timestamp,536976,ok,62,35,1,519,5346,25,-47,5,75.15,83.7,73.8,82.8,0.0112805602027,-0.0520264256077,0.005,0.021,507.516359252,46.85302,-124.95792
0,18,3731254391.83,7,2432,1600,109,133,104,134,3732270748.89,171,178,166,190,64,106,2891,3732270812.0,3731254200.0,30,0,0,100,0,-45,3731254391.83,port_timestamp,537007,ok,61,35,1,520,5347,33,-5,14,76.95,80.1,74.7,85.5,0.0303976982115,-0.013783321205,0.014,0.106,507.547022887,46.85302,-124.95792
0,19,3731257991.87,7,2432,1600,123,124,107,118,3732270748.89,174,173,156,175,65,-35,2894,3732270812.0,3731257800.0,30,0,0,100,0,-45,3731257991.87,port_timestamp,536799,ok,62,35,1,518,5345,-54,-88,-1,78.3,77.85,70.2,78.75,-0.075890460058,-0.0700045575101,-0.001,-0.035,507.3412797,46.85302,-124.95792
0,20,3731261591.91,7,2432,1600,125,128,111,129,3732270748.89,170,179,158,191,66,40,2894,3732270812.0,3731261400.0,30,4,6,88,0,-45,3731261591.91,port_timestamp,535612,ok,62,35,1,516,5333,-69,-137,9,76.5,80.55,71.1,85.95,-0.103647016639,-0.113080926516,0.009,0.04,506.1671548,46.85302,-124.95792
0,21,3731265191.95,7,2432,1600,127,127,113,123,3732270748.9,183,188,159,180,67,2,2899,3732270812.0,3731265000.0,30,0,2,97,0,-45,3731265191.95,port_timestamp,535486,ok,62,35,1,503,5332,-8,-193,45,82.35,84.6,71.55,81.0,-0.0601692272502,-0.183555615801,0.045,0.002,506.0425211,46.85302,-124.95792
0,22,3731268792.48,7,2432,1600,126,126,112,128,3732270748.9,179,186,156,188,68,5,2892,3732270812.0,3731268600.0,30,0,0,100,0,-43,3731268792.48,port_timestamp,534498,ok,62,35,1,497,5322,-67,-139,46,80.55,83.7,70.2,84.6,-0.102266083896,-0.115549331823,0.046,0.005,505.065232016,46.85302,-124.95792
1,0,3731189591.13,7,2432,1600,127,129,128,127,3732270748.77,174,185,175,188,46,19,2893,3732270811.98,3731189400.0,30,0,0,100,0,-45,3731189591.13,port_timestamp,535284,ok,60,35,1,523,5330,-50,-132,-12,78.3,83.25,78.75,84.6,-0.0840033201973,-0.113434748626,-0.012,0.019,489.842711359,46.85302,-124.95792
1,1,3731193191.16,7,2432,1600,130,127,129,129,3732270748.78,176,174,169,178,47,16,2897,3732270811.98,3731193000.0,30,0,0,100,0,-45,3731193191.16,port_timestamp,536241,ok,58,35,1,498,5339,-105,-67,-13,79.2,78.3,76.05,80.1,-0.119260289245,-0.0359302575718,-0.013,0.016,490.789333022,46.85302,-124.95792
1,2,3731196794.11,7,2432,1600,123,133,123,124,3732270748.78,162,171,162,168,48,1,2896,3732270811.98,3731196600.0,30,0,0,100,0,-45,3731196794.11,port_timestamp,537020,ok,59,35,1,500,5347,-89,7,-6,72.9,76.95,72.9,75.6,-0.0837446946342,0.0309326061078,-0.006,0.001,491.55988183,46.85302,-124.95792
1,3,3731200391.21,7,2432,1600,131,130,128,133,3732270748.79,177,180,168,178,49,-20,2894,3732270811.98,3731200200.0,30,0,0,100,0,-45,3731200391.21,port_timestamp,537004,ok,59,35,1,499,5347,-38,5,-1,79.65,81.0,75.6,80.1,-0.0352093707744,0.0151426619084,-0.001,-0.02,491.544055439,46.85302,-124.95792
1,4,3731203991.24,7,2432,1600,129,128,132,128,3732270748.79,167,182,176,173,50,7,2889,3732270811.98,3731203800.0,30,0,0,100,0,-45,3731203991.24,port_timestamp,537011,ok,59,35,1,494,5347,-66,66,9,75.15,81.9,79.2,77.85,-0.0455707805455,0.0814573751141,0.009,0.007,491.550979485,46.85302,-124.95792
1,5,3731207591.27,7,2432,1600,129,130,132,130,3732270748.79,172,171,172,180,51,25,2895,3732270811.98,3731207400.0,30,0,0,100,0,-45,3731207591.27,port_timestamp,537340,ok,60,35,1,494,5350,-41,86,-3,77.4,76.95,77.4,81.0,-0.0160750549177,0.0939073618488,-0.003,0.025,491.87640939,46.85302,-124.95792
1,6,3731211191.3,7,2432,1600,128,132,126,134,3732270748.8,175,181,169,180,52,6,2893,3732270811.98,3731211000.0,30,0,0,100,0,-45,3731211191.3,port_timestamp,536688,ok,60,35,1,494,5344,-30,22,8,78.75,81.45,76.05,81.0,-0.0228889362824,0.0293274034967,0.008,0.006,491.231483973,46.85302,-124.95792
1,7,3731214791.32,7,2432,1600,132,132,133,134,3732270748.8,181,180,174,191,53,-65,2893,3732270811.98,3731214600.0,30,0,0,100,0,-45,3731214791.32,port_timestamp,536862,ok,61,35,1,494,5345,-59,46,-10,81.45,81.0,78.3,85.95,-0.0442718017709,0.0603076078779,-0.01,-0.065,491.403596168,46.85302,-124.95792
1,8,3731218391.52,7,2432,1600,129,129,132,131,3732270748.8,172,178,182,178,54,-8,2892,3732270811.99,3731218200.0,30,0,0,100,0,-45,3731218391.52,port_timestamp,536215,ok,62,35,1,491,5339,-71,40,-26,77.4,80.1,81.9,80.1,-0.0574510247658,0.0577960184906,-0.026,-0.008,490.76361504,46.85302,-124.95792
1,9,3731221991.48,7,2432,1600,128,129,132,126,3732270748.86,177,178,172,173,55,-7,2888,3732270811.99,3731221800.0,30,0,0,100,0,-45,3731221991.48,port_timestamp,535818,ok,63,35,1,491,5335,-30,48,-7,79.65,80.1,77.4,77.85,-0.0158203646249,0.0543481008236,-0.007,-0.007,490.370920847,46.85302,-124.95792
1,10,3731225591.5,7,2432,1600,131,131,132,131,3732270748.86,187,190,176,182,56,0,2891,3732270811.99,3731225400.0,30,0,0,100,0,-45,3731225591.5,port_timestamp,535235,ok,64,35,1,490,5329,-34,-4,-3,84.15,85.5,79.2,81.9,-0.0338068459901,0.00539417873254,-0.003,0.0,489.794242631,46.85302,-124.95792
1,11,3731229191.54,7,2432,1600,132,131,131,130,3732270748.87,177,182,178,186,57,12,2891,3732270811.99,3731229000.0,30,0,0,100,0,-44,3731229191.54,port_timestamp,535603,ok,63,35,1,492,5333,-76,-40,1,79.65,81.9,80.1,83.7,-0.0840121485824,-0.0178314018119,0.001,0.012,490.158252396,46.85302,-124.95792
1,12,3731232791.58,7,2432,1600,129,132,129,131,3732270748.87,177,178,173,178,58,-7,2892,3732270811.99,3731232600.0,30,0,0,100,0,-45,3731232791.58,port_timestamp,535521,ok,63,35,1,499,5332,-69,-2,-1,79.65,80.1,77.85,80.1,-0.0669448176488,0.0168342326812,-0.001,-0.007,490.07714158,46.85302,-124.95792
1,13,3731236391.62,7,2432,1600,132,130,124,131,3732270748.87,180,185,168,178,59,-3,2894,3732270811.99,3731236200.0,30,0,0,100,0,-45,3731236391.62,port_timestamp,536306,ok,63,35,1,499,5340,-109,-46,-3,81.0,83.25,75.6,80.1,-0.117400396341,-0.0146337602451,-0.003,-0.003,490.853627961,46.85302,-124.95792
1,14,3731239991.66,7,2432,1600,127,128,130,129,3732270748.88,170,176,182,181,60,-5,2888,3732270811.99,3731239800.0,30,0,0,100,0,-45,3731239991.66,port_timestamp,536994,ok,63,35,1,511,5347,-47,-19,-9,76.5,79.2,81.9,81.45,-0.0503952167637,-0.00550655312731,-0.009,-0.005,491.534163944,46.85302,-124.95792
1,15,3731243591.97,7,2432,1600,134,137,132,125,3732270748.88,174,182,176,165,61,0,2885,3732270811.99,3731243400.0,30,0,0,100,0,-45,3731243591.97,port_timestamp,537108,ok,61,35,1,515,5348,7,-21,-13,78.3,81.9,79.2,74.25,0.0010271106339,-0.0221121017487,-0.013,0.0,491.646926957,46.85302,-124.95792
1,16,3731247191.75,7,2432,1600,132,133,129,124,3732270748.88,185,187,183,176,62,7,2883,3732270812.0,3731247000.0,30,0,0,100,0,-45,3731247191.75,port_timestamp,537537,ok,62,35,1,516,5352,-12,0,-13,83.25,84.15,82.35,79.2,-0.0115480141509,0.00326241768806,-0.013,0.007,492.071271428,46.85302,-124.95792
1,17,3731250791.79,7,2432,1600,131,131,133,128,3732270748.89,171,185,165,177,63,3,2886,3732270812.0,3731250600.0,30,0,0,100,0,-45,3731250791.79,port_timestamp,536976,ok,62,35,1,519,5346,-2,-85,-1,76.95,83.25,74.25,79.65,-0.0250334609822,-0.0812546972873,-0.001,0.003,491.516359252,46.85302,-124.95792
1,18,3731254391.83,7,2432,1600,120,129,123,127,3732270748.89,154,175,153,176,64,21,2891,3732270812.0,3731254200.0,30,0,0,100,0,-45,3731254391.83,port_timestamp,537007,ok,61,35,1,520,5347,-13,-32,4,69.3,78.75,68.85,79.2,-0.0212101291649,-0.0272604185736,0.004,0.021,491.547022887,46.85302,-124.95792
1,19,3731257991.87,7,2432,1600,130,132,128,134,3732270748.89,170,177,149,185,65,38,2894,3732270812.0,3731257800.0,30,0,2,97,0,-45,3731257991.87,port_timestamp,536799,ok,62,35,1,518,5345,-17,-95,0,76.5,79.65,67.05,83.25,-0.0421871600775,-0.086800020303,0.0,0.038,491.3412797,46.85302,-124.95792
1,20,3731261591.91,7,2432,1600,129,132,126,128,3732270748.89,167,178,149,179,66,-5,2894,3732270812.0,3731261400.0,30,0,0,100,0,-45,3731261591.91,port_timestamp,535612,ok,62,35,1,516,5333,-34,-94,-5,75.15,80.1,67.05,80.55,-0.0582749786506,-0.081215927399,-0.005,-0.005,490.1671548,46.85302,-124.95792
1,21,3731265191.95,7,2432,1600,127,131,127,127,3732270748.9,179,181,151,176,67,20,2899,3732270812.0,3731265000.0,30,0,0,100,0,-45,3731265191.95,port_timestamp,535486,ok,62,35,1,503,5332,1,-127,7,80.55,81.45,67.95,79.2,-0.0335649193527,-0.122488351237,0.007,0.02,490.0425211,46.85302,-124.95792
1,22,3731268792.48,7,2432,1600,129,128,129,128,3732270748.9,174,182,149,182,68,-47,2892,3732270812.0,3731268600.0,30,0,0,100,0,-43,3731268792.48,port_timestamp,534498,ok,62,35,1,497,5322,12,-82,63,78.3,81.9,67.05,81.9,-0.0107451733842,-0.082173847719,0.063,-0.047,489.065232016,46.85302,-124.95792
2,0,3731189591.13,7,2432,1600,129,131,130,129,3732270748.77,173,179,172,181,46,-55,2893,3732270811.98,3731189400.0,30,0,0,100,0,-45,3731189591.13,port_timestamp,535284,ok,60,35,1,523,5330,-61,-61,-9,77.85,80.55,77.4,81.45,-0.0752863618479,-0.0421184486859,-0.009,-0.055,473.842711359,46.85302,-124.95792
2,1,3731193191.16,7,2432,1600,129,132,130,127,3732270748.78,162,173,165,168,47,-17,2897,3732270811.98,3731193000.0,30,0,0,100,0,-45,3731193191.16,port_timestamp,536241,ok,58,35,1,498,5339,-117,-82,-13,72.9,77.85,74.25,75.6,-0.134886325506,-0.0471028575724,-0.013,-0.017,474.789333022,46.85302,-124.95792
2,2,3731196794.11,7,2432,1600,131,127,125,127,3732270748.78,164,170,154,163,48,1,2896,3732270811.98,3731196600.0,30,0,0,100,0,-45,3731196794.11,port_timestamp,537020,ok,59,35,1,500,5347,-61,41,-7,73.8,76.5,69.3,73.35,-0.0475558114994,0.0560396715964,-0.007,0.001,475.55988183,46.85302,-124.95792
2,3,3731200391.21,7,2432,1600,133,129,129,124,3732270748.79,169,165,163,166,49,-3,2894,3732270811.98,3731200200.0,30,0,0,100,0,-45,3731200391.21,port_timestamp,537004,ok,59,35,1,499,5347,-64,32,0,76.05,74.25,73.35,74.7,-0.0528896283031,0.0481942654053,0.0,-0.003,475.544055439,46.85302,-124.95792
2,4,3731203991.24,7,2432,1600,130,132,126,134,3732270748.79,160,174,151,169,50,-3,2889,3732270811.98,3731203800.0,30,0,0,100,0,-45,3731203991.24,port_timestamp,537011,ok,59,35,1,494,5347,-49,60,5,72.0,78.3,67.95,76.05,-0.0308423026758,0.0710616096472,0.005,-0.003,475.550979485,46.85302,-124.95792
2,5,3731207591.27,7,2432,1600,129,133,134,133,3732270748.79,166,165,171,174,51,11,2895,3732270811.98,3731207400.0,30,0,0,100,0,-45,3731207591.27,port_timestamp,537340,ok,60,35,1,494,5350,-30,88,3,74.7,74.25,76.95,78.3,-0.00494563899808,0.0928414813265,0.003,0.011,475.87640939,46.85302,-124.95792
2,6,3731211191.3,7,2432,1600,126,127,134,128,3732270748.8,167,171,165,172,52,7,2893,3732270811.98,3731211000.0,30,0,0,100,0,-45,3731211191.3,port_timestamp,536688,ok,60,35,1,494,5344,37,144,7,75.15,76.95,74.25,77.4,0.0747553892219,0.128517048606,0.007,0.007,475.231483973,46.85302,-124.95792
2,7,3731214791.32,7,2432,1600,123,129,126,126,3732270748.8,165,173,157,172,53,5,2893,3732270811.98,3731214600.0,30,0,0,100,0,-45,3731214791.32,port_timestamp,536862,ok,61,35,1,494,5345,-24,78,-15,74.25,77.85,70.65,77.4,-0.00189031332936,0.0815869273568,-0.015,0.005,475.403596168,46.85302,-124.95792
2,8,3731218391.52,7,2432,1600,128,131,128,127,3732270748.8,159,170,167,170,54,15,2892,3732270811.99,3731218200.0,30,0,0,100,0,-45,3731218391.52,port_timestamp,536215,ok,62,35,1,491,5339,-6,86,-7,71.55,76.5,75.15,76.5,0.0176066530223,0.0843919769252,-0.007,0.015,474.76361504,46.85302,-124.95792
2,9,3731221991.48,7,2432,1600,130,132,131,128,3732270748.86,168,173,168,168,55,2,2888,3732270811.99,3731221800.0,30,0,0,100,0,-45,3731221991.48,port_timestamp,535818,ok,63,35,1,491,5335,8,88,5,75.6,77.85,75.6,75.6,0.0316230724797,0.082510491981,0.005,0.002,474.370920847,46.85302,-124.95792
2,10,3731225591.5,7,2432,1600,129,124,131,130,3732270748.86,169,174,169,173,56,-25,2891,3732270811.99,3731225400.0,30,0,0,100,0,-45,3731225591.5,port_timestamp,535235,ok,64,35,1,490,5329,23,35,-9,76.05,78.3,76.05,77.85,0.0316490787127,0.0274287407046,-0.009,-0.025,473.794242631,46.85302,-124.95792
2,11,3731229191.54,7,2432,1600,129,132,120,130,3732270748.87,165,171,157,170,57,-15,2891,3732270811.99,3731229000.0,30,0,0,100,0,-44,3731229191.54,port_timestamp,535603,ok,63,35,1,492,5333,-14,-28,-6,74.25,76.95,70.65,76.5,-0.0210849911148,-0.0231392123826,-0.006,-0.015,474.158252396,46.85302,-124.95792
2,12,3731232791.58,7,2432,1600,121,129,125,133,3732270748.87,160,173,161,173,58,-9,2892,3732270811.99,3731232600.0,30,0,0,100,0,-45,3731232791.58,port_timestamp,535521,ok,63,35,1,499,5332,-13,-5,-3,72.0,77.85,72.45,77.85,-0.0138696893668,-0.00127738673413,-0.003,-0.009,474.07714158,46.85302,-124.95792
2,13,3731236391.62,7,2432,1600,130,132,127,128,3732270748.87,169,175,164,166,59,6,2894,3732270811.99,3731236200.0,30,0,0,100,0,-45,3731236391.62,port_timestamp,536306,ok,63,35,1,499,5340,-29,-26,0,76.05,78.75,73.8,74.7,-0.0349762725221,-0.0171365212474,0.0,0.006,474.853627961,46.85302,-124.95792
2,14,3731239991.66,7,2432,1600,128,133,125,129,3732270748.88,171,175,170,173,60,-17,2888,3732270811.99,3731239800.0,30,0,0,100,0,-45,3731239991.66,port_timestamp,536994,ok,63,35,1,511,5347,-43,-48,-7,76.95,78.75,76.5,77.85,-0.0544300547928,-0.0345017265546,-0.007,-0.017,475.534163944,46.85302,-124.95792
2,15,3731243591.97,7,2432,1600,130,120,129,126,3732270748.88,169,175,174,159,61,-4,2885,3732270811.99,3731243400.0,30,0,0,100,0,-45,3731243591.97,port_timestamp,537108,ok,61,35,1,515,5348,-61,-45,-17,76.05,78.75,78.3,71.55,-0.0709364715971,-0.0267210964848,-0.017,-0.004,475.646926957,46.85302,-124.95792
2,16,3731247191.75,7,2432,1600,127,125,131,133,3732270748.88,166,175,173,176,62,23,2883,3732270812.0,3731247000.0,30,0,0,100,0,-45,3731247191.75,port_timestamp,537537,ok,62,35,1,516,5352,-46,-42,-8,74.7,78.75,77.85,79.2,-0.0556858494865,-0.0279121150571,-0.008,0.023,476.071271428,46.85302,-124.95792
2,17,3731250791.79,7,2432,1600,127,129,128,130,3732270748.89,157,174,156,171,63,12,2886,3732270812.0,3731250600.0,30,0,0,100,0,-45,3731250791.79,port_timestamp,536976,ok,62,35,1,519,5346,-51,-118,-1,70.65,78.3,70.2,76.95,-0.0811595007404,-0.0996901973093,-0.001,0.012,475.516359252,46.85302,-124.95792
2,18,3731254391.83,7,2432,1600,128,127,127,129,3732270748.89,146,170,142,175,64,2,2891,3732270812.0,3731254200.0,30,0,0,100,0,-45,3731254391.83,port_timestamp,537007,ok,61,35,1,520,5347,-29,-26,10,65.7,76.5,63.9,78.75,-0.0349762725221,-0.0171365212474,0.01,0.002,475.547022887,46.85302,-124.95792
2,19,3731257991.87,7,2432,1600,128,122,125,127,3732270748.89,168,171,140,177,65,-27,2894,3732270812.0,3731257800.0,30,0,0,100,0,-45,3731257991.87,port_timestamp,536799,ok,62,35,1,518,5345,43,-35,1,75.6,76.95,63.0,79.65,0.0318649991171,-0.0453720379889,0.001,-0.027,475.3412797,46.85302,-124.95792
2,20,3731261591.91,7,2432,1600,129,126,128,126,3732270748.89,167,172,142,168,66,-16,2894,3732270812.0,3731261400.0,30,0,0,100,0,-45,3731261591.91,port_timestamp,535612,ok,62,35,1,516,5333,17,-80,0,75.15,77.4,63.9,75.6,-0.00538976453999,-0.0816085193972,0.0,-0.016,474.1671548,46.85302,-124.95792
2,21,3731265191.95,7,2432,1600,129,128,124,129,3732270748.9,166,171,136,170,67,22,2899,3732270812.0,3731265000.0,30,0,0,100,0,-45,3731265191.95,port_timestamp,535486,ok,62,35,1,503,5332,-19,-75,-1,74.7,76.95,61.2,76.5,-0.0386744662892,-0.0670095937702,-0.001,0.022,474.0425211,46.85302,-124.95792
2,22,3731268792.48,7,2432,1600,125,124,128,127,3732270748.9,157,174,140,172,68,-16,2892,3732270812.0,3731268600.0,30,0,0,100,0,-43,3731268792.48,port_timestamp,534498,ok,62,35,1,497,5322,-45,-45,23,70.65,78.3,63.0,77.4,-0.055539119396,-0.0310709867355,0.023,-0.016,473.065232016,46.85302,-124.95792
3,0,3731189591.13,7,2432,1600,124,128,125,122,3732270748.77,166,169,165,172,46,-18,2893,3732270811.98,3731189400.0,30,0,0,100,0,-45,3731189591.13,port_timestamp,535284,ok,60,35,1,523,5330,-22,-17,-4,74.7,76.05,74.25,77.4,-0.025793117668,-0.010378587619,-0.004,-0.018,457.842711359,46.85302,-124.95792
3,1,3731193191.16,7,2432,1600,130,123,129,131,3732270748.78,160,163,158,166,47,-9,2897,3732270811.98,3731193000.0,30,0,0,100,0,-45,3731193191.16,port_timestamp,536241,ok,58,35,1,498,5339,-106,-90,-12,72.0,73.35,71.1,74.7,-0.126475590993,-0.0577920832203,-0.012,-0.009,458.789333022,46.85302,-124.95792
3,2,3731196794.11,7,2432,1600,124,128,128,129,3732270748.78,162,159,160,162,48,9,2896,3732270811.98,3731196600.0,30,0,0,100,0,-45,3731196794.11,port_timestamp,537020,ok,59,35,1,500,5347,-40,7,-7,72.9,71.55,72.0,72.9,-0.0365903035182,0.0176110672149,-0.007,0.009,459.55988183,46.85302,-124.95792
3,3,3731200391.21,7,2432,1600,130,129,132,133,3732270748.79,156,165,164,166,49,-22,2894,3732270811.98,3731200200.0,30,0,0,100,0,-45,3731200391.21,port_timestamp,537004,ok,59,35,1,499,5347,-50,46,0,70.2,74.25,73.8,74.7,-0.0356107911577,0.0578607946119,0.0,-0.022,459.544055439,46.85302,-124.95792
3,4,3731203991.24,7,2432,1600,127,124,131,121,3732270748.79,162,161,159,159,50,-5,2889,3732270811.98,3731203800.0,30,0,0,100,0,-45,3731203991.24,port_timestamp,537011,ok,59,35,1,494,5347,-13,70,8,72.9,72.45,71.55,71.55,0.00652042118357,0.0708977017088,0.008,-0.005,459.550979485,46.85302,-124.95792
3,5,3731207591.27,7,2432,1600,129,128,126,129,3732270748.79,161,159,157,164,51,1,2895,3732270811.98,3731207400.0,30,0,0,100,0,-45,3731207591.27,port_timestamp,537340,ok,60,35,1,494,5350,-28,94,0,72.45,71.55,70.65,73.8,-0.0013897611289,0.0980717521206,0.0,0.001,459.87640939,46.85302,-124.95792
3,6,3731211191.3,7,2432,1600,131,130,129,131,3732270748.8,160,163,159,167,52,-3,2893,3732270811.98,3731211000.0,30,0,0,100,0,-45,3731211191.3,port_timestamp,536688,ok,60,35,1,494,5344,22,133,2,72.0,73.35,71.55,75.15,0.0573298219859,0.122009391077,0.002,-0.003,459.231483973,46.85302,-124.95792
3,7,3731214791.32,7,2432,1600,132,128,132,131,3732270748.8,158,160,159,165,53,-8,2893,3732270811.98,3731214600.0,30,0,0,100,0,-45,3731214791.32,port_timestamp,536862,ok,61,35,1,494,5345,57,87,-8,71.1,72.0,71.55,74.25,0.078505595455,0.0682266185755,-0.008,-0.008,459.403596168,46.85302,-124.95792
3,8,3731218391.52,7,2432,1600,129,128,124,128,3732270748.8,158,164,152,165,54,7,2892,3732270811.99,3731218200.0,30,0,0,100,0,-45,3731218391.52,port_timestamp,536215,ok,62,35,1,491,5339,61,108,-8,71.1,73.8,68.4,74.25,0.0880641644594,0.0873481707768,-0.008,0.007,458.76361504,46.85302,-124.95792
3,9,3731221991.48,7,2432,1600,129,130,128,131,3732270748.86,163,169,161,168,55,-15,2888,3732270811.99,3731221800.0,30,0,0,100,0,-45,3731221991.48,port_timestamp,535818,ok,63,35,1,491,5335,79,70,-1,73.35,76.05,72.45,75.6,0.0950551963402,0.045885832767,-0.001,-0.015,458.370920847,46.85302,-124.95792
3,10,3731225591.5,7,2432,1600,127,129,127,127,3732270748.86,162,168,160,166,56,-33,2891,3732270811.99,3731225400.0,30,0,0,100,0,-45,3731225591.5,port_timestamp,535235,ok,64,35,1,490,5329,85,52,-7,72.9,75.6,72.0,74.7,0.0959355768836,0.0269326026967,-0.007,-0.033,457.794242631,46.85302,-124.95792
3,11,3731229191.54,7,2432,1600,129,123,127,129,3732270748.87,163,164,157,167,57,-14,2891,3732270811.99,3731229000.0,30,0,0,100,0,-44,3731229191.54,port_timestamp,535603,ok,63,35,1,492,5333,85,-5,0,73.35,73.8,70.65,75.15,0.0804390928653,-0.0279204645199,0.0,-0.014,458.158252396,46.85302,-124.95792
3,12,3731232791.58,7,2432,1600,128,130,128,125,3732270748.87,161,167,162,168,58,-1,2892,3732270811.99,3731232600.0,30,0,0,100,0,-45,3731232791.58,port_timestamp,535521,ok,63,35,1,499,5332,97,-15,0,72.45,75.15,72.9,75.6,0.0892684256094,-0.0408062273337,0.0,-0.001,458.07714158,46.85302,-124.95792
3,13,3731236391.62,7,2432,1600,128,127,128,129,3732270748.87,164,165,164,162,59,-15,2894,3732270811.99,3731236200.0,30,0,0,100,0,-45,3731236391.62,port_timestamp,536306,ok,63,35,1,499,5340,26,-74,-2,73.8,74.25,73.8,72.9,0.00490245491719,-0.0782813255878,-0.002,-0.015,458.853627961,46.85302,-124.95792
3,14,3731239991.66,7,2432,1600,128,130,129,128,3732270748.88,166,170,167,165,60,-25,2888,3732270811.99,3731239800.0,30,0,0,100,0,-45,3731239991.66,port_timestamp,536994,ok,63,35,1,511,5347,-88,-100,-8,74.7,76.5,75.15,74.25,-0.111872251174,-0.0723090548781,-0.008,-0.025,459.534163944,46.85302,-124.95792
3,15,3731243591.97,7,2432,1600,127,131,129,128,3732270748.88,169,174,170,157,61,-5,2885,3732270811.99,3731243400.0,30,0,0,100,0,-45,3731243591.97,port_timestamp,537108,ok,61,35,1,515,5348,17,-87,-17,76.05,78.3,76.5,70.65,-0.00729284152469,-0.0883448609852,-0.017,-0.005,459.646926957,46.85302,-124.95792
3,16,3731247191.75,7,2432,1600,129,131,127,128,3732270748.88,166,173,164,172,62,-22,2883,3732270812.0,3731247000.0,30,0,0,100,0,-45,3731247191.75,port_timestamp,537537,ok,62,35,1,516,5352,2,-71,-14,74.7,77.85,73.8,77.4,-0.0173779689625,-0.068869486674,-0.014,-0.022,460.071271428,46.85302,-124.95792
3,17,3731250791.79,7,2432,1600,128,128,129,132,3732270748.89,159,169,152,172,63,23,2886,3732270812.0,3731250600.0,30,0,0,100,0,-45,3731250791.79,port_timestamp,536976,ok,62,35,1,519,5346,-6,-102,7,71.55,76.05,68.4,77.4,-0.0335045574239,-0.0965269114383,0.007,0.023,459.516359252,46.85302,-124.95792
3,18,3731254391.83,7,2432,1600,127,129,126,129,3732270748.89,142,170,137,172,64,-14,2891,3732270812.0,3731254200.0,30,0,0,100,0,-45,3731254391.83,port_timestamp,537007,ok,61,35,1,520,5347,-9,-32,3,63.9,76.5,61.65,77.4,-0.0173607911146,-0.0283478911363,0.003,-0.014,459.547022887,46.85302,-124.95792
3,19,3731257991.87,7,2432,1600,127,129,128,128,3732270748.89,163,173,136,171,65,-37,2894,3732270812.0,3731257800.0,30,0,2,97,0,-45,3731257991.87,port_timestamp,536799,ok,62,35,1,518,5345,27,-5,-6,73.35,77.85,61.2,76.95,0.0246236911361,-0.012152112361,-0.006,-0.037,459.3412797,46.85302,-124.95792
3,20,3731261591.91,7,2432,1600,130,132,132,132,3732270748.89,162,172,136,168,66,-33,2894,3732270812.0,3731261400.0,30,0,0,100,0,-45,3731261591.91,port_timestamp,535612,ok,62,35,1,516,5333,65,-40,-6,72.9,77.4,61.2,75.6,0.0516770176903,-0.0561648096465,-0.006,-0.033,458.1671548,46.85302,-124.95792
3,21,3731265191.95,7,2432,1600,126,127,128,130,3732270748.9,160,168,133,168,67,11,2899,3732270812.0,3731265000.0,30,0,0,100,0,-45,3731265191.95,port_timestamp,535486,ok,62,35,1,503,5332,33,-62,13,72.0,75.6,59.85,75.6,0.0149012141933,-0.0686363884216,0.013,0.011,458.0425211,46.85302,-124.95792
3,22,3731268792.48,7,2432,1600,130,130,128,125,3732270748.9,156,171,136,162,68,9,2892,3732270812.0,3731268600.0,30,0,0,100,0,-43,3731268792.48,port_timestamp,534498,ok,62,35,1,497,5322,-25,-76,3,70.2,76.95,61.2,72.9,-0.0447203415053,-0.0663407194387,0.003,0.009,457.065232016,46.85302,-124.95792
4,0,3731189591.13,7,2432,1600,128,130,131,131,3732270748.77,160,167,164,170,46,17,2893,3732270811.98,3731189400.0,30,0,0,100,0,-45,3731189591.13,port_timestamp,535284,ok,60,35,1,523,5330,25,-102,-14,72.0,75.15,73.8,76.5,-0.00367218753419,-0.104954823799,-0.014,0.017,441.842711359,46.85302,-124.95792
4,1,3731193191.16,7,2432,1600,125,130,128,128,3732270748.78,152,162,152,158,47,0,2897,3732270811.98,3731193000.0,30,0,0,100,0,-45,3731193191.16,port_timestamp,536241,ok,58,35,1,498,5339,-75,-57,-12,68.4,72.9,68.4,71.1,-0.0876715724612,-0.0344629566663,-0.012,0.0,442.789333022,46.85302,-124.95792
4,2,3731196794.11,7,2432,1600,133,125,126,128,3732270748.78,164,164,154,161,48,1,2896,3732270811.98,3731196600.0,30,0,0,100,0,-45,3731196794.11,port_timestamp,537020,ok,59,35,1,500,5347,-60,-6,-7,73.8,73.8,69.3,72.45,-0.0593712795984,0.0105380813649,-0.007,0.001,443.55988183,46.85302,-124.95792
4,3,3731200391.21,7,2432,1600,126,127,124,130,3732270748.79,151,161,151,165,49,-1,2894,3732270811.98,3731200200.0,30,0,0,100,0,-45,3731200391.21,port_timestamp,537004,ok,59,35,1,499,5347,-45,25,0,67.95,72.45,67.95,74.25,-0.036508349549,0.0362924291445,0.0,-0.001,443.544055439,46.85302,-124.95792
4,4,3731203991.24,7,2432,1600,130,125,127,129,3732270748.79,158,165,156,162,50,12,2889,3732270811.98,3731203800.0,30,0,0,100,0,-45,3731203991.24,port_timestamp,537011,ok,59,35,1,494,5347,-48,55,6,71.1,74.25,70.2,72.9,-0.0312393088665,0.0659780689437,0.006,0.012,443.550979485,46.85302,-124.95792
4,5,3731207591.27,7,2432,1600,130,129,129,128,3732270748.79,153,157,148,158,51,15,2895,3732270811.98,3731207400.0,30,0,0,100,0,-45,3731207591.27,port_timestamp,537340,ok,60,35,1,494,5350,-23,116,4,68.85,70.65,66.6,71.1,0.00940301052873,0.117883770694,0.004,0.015,443.87640939,46.85302,-124.95792
4,6,3731211191.3,7,2432,1600,123,128,126,127,3732270748.8,152,155,150,157,52,-18,2893,3732270811.98,3731211000.0,30,0,0,100,0,-45,3731211191.3,port_timestamp,536688,ok,60,35,1,494,5344,5,112,-1,68.4,69.75,67.5,70.65,0.0352609043181,0.106422124705,-0.001,-0.018,443.231483973,46.85302,-124.95792
4,7,3731214791.32,7,2432,1600,134,126,127,125,3732270748.8,156,156,154,156,53,-3,2893,3732270811.98,3731214600.0,30,0,0,100,0,-45,3731214791.32,port_timestamp,536862,ok,61,35,1,494,5345,46,53,-5,70.2,70.2,69.3,70.2,0.0586763990339,0.0384977946954,-0.005,-0.003,443.403596168,46.85302,-124.95792
4,8,3731218391.52,7,2432,1600,128,129,130,129,3732270748.8,153,160,155,159,54,-2,2892,3732270811.99,3731218200.0,30,0,0,100,0,-45,3731218391.52,port_timestamp,536215,ok,62,35,1,491,5339,88,107,4,68.85,72.0,69.75,71.55,0.113775328158,0.0790453964661,0.004,-0.002,442.76361504,46.85302,-124.95792
4,9,3731221991.48,7,2432,1600,128,126,129,127,3732270748.86,157,163,157,164,55,-9,2888,3732270811.99,3731221800.0,30,0,0,100,0,-45,3731221991.48,port_timestamp,535818,ok,63,35,1,491,5335,122,50,-1,70.65,73.35,70.65,73.8,0.130998217567,0.0149488124667,-0.001,-0.009,442.370920847,46.85302,-124.95792
4,10,3731225591.5,7,2432,1600,130,126,129,132,3732270748.86,160,165,158,169,56,-10,2891,3732270811.99,3731225400.0,30,0,4,95,0,-45,3731225591.5,port_timestamp,535235,ok,64,35,1,490,5329,137,47,-7,72.0,74.25,71.1,76.05,0.144617630834,0.0079837868189,-0.007,-0.01,441.794242631,46.85302,-124.95792
4,11,3731229191.54,7,2432,1600,127,130,127,126,3732270748.87,160,166,159,165,57,4,2891,3732270811.99,3731229000.0,30,0,0,100,0,-44,3731229191.54,port_timestamp,535603,ok,63,35,1,492,5333,101,-4,13,72.0,74.7,71.55,74.25,0.0961083132071,-0.0313080202581,0.013,0.004,442.158252396,46.85302,-124.95792
4,12,3731232791.58,7,2432,1600,128,129,126,129,3732270748.87,160,164,158,167,58,-9,2892,3732270811.99,3731232600.0,30,0,0,100,0,-45,3731232791.58,port_timestamp,535521,ok,63,35,1,499,5332,106,-39,-5,72.0,73.8,71.1,75.15,0.0914046008465,-0.0663490689015,-0.005,-0.009,442.07714158,46.85302,-124.95792
4,13,3731236391.62,7,2432,1600,129,129,125,129,3732270748.87,165,166,161,162,59,6,2894,3732270811.99,3731236200.0,30,0,0,100,0,-45,3731236391.62,port_timestamp,536306,ok,63,35,1,499,5340,-23,-99,3,74.25,74.7,72.45,72.9,-0.0490486397156,-0.0890181495092,0.003,0.006,442.853627961,46.85302,-124.95792
4,14,3731239991.66,7,2432,1600,129,129,126,130,3732270748.88,162,170,160,165,60,-11,2888,3732270811.99,3731239800.0,30,0,0,100,0,-45,3731239991.66,port_timestamp,536994,ok,63,35,1,511,5347,-83,-97,-12,72.9,76.5,72.0,74.25,-0.106244974189,-0.0707813920438,-0.012,-0.011,443.534163944,46.85302,-124.95792
4,15,3731243591.97,7,2432,1600,129,127,127,127,3732270748.88,166,169,165,157,61,-28,2885,3732270811.99,3731243400.0,30,0,0,100,0,-45,3731243591.97,port_timestamp,537108,ok,61,35,1,515,5348,33,-59,-11,74.7,76.05,74.25,70.65,0.0157168186153,-0.0657493848839,-0.011,-0.028,443.646926957,46.85302,-124.95792
4,16,3731247191.75,7,2432,1600,126,129,130,128,3732270748.88,162,168,162,167,62,-11,2883,3732270812.0,3731247000.0,30,0,0,100,0,-45,3731247191.75,port_timestamp,537537,ok,62,35,1,516,5352,-11,-82,-10,72.9,75.6,72.9,75.15,-0.0328788671734,-0.0759208804835,-0.01,-0.011,444.071271428,46.85302,-124.95792
4,17,3731250791.79,7,2432,1600,125,125,130,128,3732270748.89,155,166,148,166,63,13,2886,3732270812.0,3731250600.0,30,0,0,100,0,-45,3731250791.79,port_timestamp,536976,ok,62,35,1,519,5346,-12,-69,5,69.75,74.7,66.6,74.7,-0.0303069158572,-0.0631386636794,0.005,0.013,443.516359252,46.85302,-124.95792
4,18,3731254391.83,7,2432,1600,126,128,129,124,3732270748.89,136,166,131,161,64,-18,2891,3732270812.0,3731254200.0,30,0,0,100,0,-45,3731254391.83,port_timestamp,537007,ok,61,35,1,520,5347,14,-61,0,61.2,74.7,58.95,72.45,-0.00311127340495,-0.0625085592363,0.0,-0.018,443.547022887,46.85302,-124.95792
4,19,3731257991.87,7,2432,1600,130,124,127,129,3732270748.89,158,163,131,166,65,-32,2894,3732270812.0,3731257800.0,30,0,0,100,0,-45,3731257991.87,port_timestamp,536799,ok,62,35,1,518,5345,36,-63,-10,71.1,73.35,58.95,74.7,0.0175163495903,-0.0704143273562,-0.01,-0.032,443.3412797,46.85302,-124.95792
4,20,3731261591.91,7,2432,1600,130,124,126,128,3732270748.89,158,166,129,165,66,-16,2894,3732270812.0,3731261400.0,30,0,0,100,0,-45,3731261591.91,port_timestamp,535612,ok,62,35,1,516,5333,82,-34,-2,71.1,74.7,58.05,74.25,0.0696679132481,-0.0550125609625,-0.002,-0.016,442.1671548,46.85302,-124.95792
4,21,3731265191.95,7,2432,1600,130,128,128,128,3732270748.9,161,163,130,165,67,-5,2899,3732270812.0,3731265000.0,30,0,0,100,0,-45,3731265191.95,port_timestamp,535486,ok,62,35,1,503,5332,79,-51,5,72.45,73.35,58.5,74.25,0.062159151319,-0.0705566432542,0.005,-0.005,442.0425211,46.85302,-124.95792
4,22,3731268792.48,7,2432,1600,128,128,126,131,3732270748.9,153,165,127,164,68,28,2892,3732270812.0,3731268600.0,30,0,0,100,0,-43,3731268792.48,port_timestamp,534498,ok,62,35,1,497,5322,-12,-116,3,68.85,74.25,57.15,73.8,-0.0430847184688,-0.10836838577,0.003,0.028,441.065232016,46.85302,-124.95792
5,0,3731189591.13,7,2432,1600,128,125,125,127,3732270748.77,154,157,158,160,46,30,2893,3732270811.98,3731189400.0,30,0,0,100,0,-45,3731189591.13,port_timestamp,535284,ok,60,35,1,523,5330,66,-143,-1,69.3,70.65,71.1,72.0,0.0246369337137,-0.155557132582,-0.001,0.03,425.842711359,46.85302,-124.95792
5,1,3731193191.16,7,2432,1600,125,126,126,125,3732270748.78,154,167,153,155,47,3,2897,3732270811.98,3731193000.0,30,0,0,100,0,-45,3731193191.16,port_timestamp,536241,ok,58,35,1,498,5339,-33,-79,-14,69.3,75.15,68.85,69.75,-0.0532346220279,-0.0670527778511,-0.014,0.003,426.789333022,46.85302,-124.95792
5,2,3731196794.11,7,2432,1600,124,127,127,127,3732270748.78,165,171,160,172,48,-8,2896,3732270811.98,3731196600.0,30,0,0,100,0,-45,3731196794.11,port_timestamp,537020,ok,59,35,1,500,5347,11,-13,-13,74.25,76.95,72.0,77.4,0.00705139380957,-0.0155008982108,-0.013,-0.008,427.55988183,46.85302,-124.95792
5,3,3731200391.21,7,2432,1600,125,124,122,124,3732270748.79,161,164,158,170,49,19,2894,3732270811.98,3731200200.0,30,0,0,100,0,-45,3731200391.21,port_timestamp,537004,ok,59,35,1,499,5347,-23,23,0,72.45,73.8,71.1,76.5,-0.0158807265537,0.0283866610246,0.0,0.019,427.544055439,46.85302,-124.95792
5,4,3731203991.24,7,2432,1600,129,129,128,132,3732270748.79,157,167,160,172,50,2,2889,3732270811.98,3731203800.0,30,0,0,100,0,-45,3731203991.24,port_timestamp,537011,ok,59,35,1,494,5347,21,28,-9,70.65,75.15,72.0,77.4,0.0278213327028,0.0212361353979,-0.009,0.002,427.550979485,46.85302,-124.95792
5,5,3731207591.27,7,2432,1600,127,126,133,124,3732270748.79,146,157,167,161,51,-41,2895,3732270811.98,3731207400.0,30,0,0,100,0,-45,3731207591.27,port_timestamp,537340,ok,60,35,1,494,5350,-51,15,-10,65.7,70.65,75.15,72.45,-0.0450010380311,0.0283002928628,-0.01,-0.041,427.87640939,46.85302,-124.95792
5,6,3731211191.3,7,2432,1600,132,125,129,126,3732270748.8,151,158,147,156,52,10,2893,3732270811.98,3731211000.0,30,0,0,100,0,-45,3731211191.3,port_timestamp,536688,ok,60,35,1,494,5344,10,103,-2,67.95,71.1,66.15,70.2,0.0376257636149,0.0964017733882,-0.002,0.01,427.231483973,46.85302,-124.95792
5,7,3731214791.32,7,2432,1600,121,124,126,129,3732270748.8,149,156,152,160,53,6,2893,3732270811.98,3731214600.0,30,0,0,100,0,-45,3731214791.32,port_timestamp,536862,ok,61,35,1,494,5345,5,66,-9,67.05,70.2,68.4,72.0,0.0227549698472,0.0621547371264,-0.009,0.006,427.403596168,46.85302,-124.95792
5,8,3731218391.52,7,2432,1600,127,128,128,126,3732270748.8,154,159,153,158,54,-2,2892,3732270811.99,3731218200.0,30,0,0,100,0,-45,3731218391.52,port_timestamp,536215,ok,62,35,1,491,5339,58,85,-1,69.3,71.55,68.85,71.1,0.0789241936863,0.0660300814097,-0.001,-0.002,426.76361504,46.85302,-124.95792
5,9,3731221991.48,7,2432,1600,125,126,126,125,3732270748.86,156,161,157,159,55,-42,2888,3732270811.99,3731221800.0,30,0,0,100,0,-45,3731221991.48,port_timestamp,535818,ok,63,35,1,491,5335,114,102,-8,70.2,72.45,70.65,71.55,0.137436684782,0.0671651522458,-0.008,-0.042,426.370920847,46.85302,-124.95792
5,10,3731225591.5,7,2432,1600,128,129,124,128,3732270748.86,159,167,158,164,56,6,2891,3732270811.99,3731225400.0,30,0,0,100,0,-45,3731225591.5,port_timestamp,535235,ok,64,35,1,490,5329,137,29,-7,71.55,75.15,71.1,73.8,0.139724004302,-0.0093382344074,-0.007,0.006,425.794242631,46.85302,-124.95792
5,11,3731229191.54,7,2432,1600,128,126,128,130,3732270748.87,159,166,160,165,57,-14,2891,3732270811.99,3731229000.0,30,0,0,100,0,-44,3731229191.54,port_timestamp,535603,ok,63,35,1,492,5333,107,-15,13,71.55,74.7,72.0,74.25,0.0988917707352,-0.0435249087404,0.013,-0.014,426.158252396,46.85302,-124.95792
5,12,3731232791.58,7,2432,1600,126,126,128,127,3732270748.87,158,162,158,163,58,-15,2892,3732270811.99,3731232600.0,30,0,0,100,0,-45,3731232791.58,port_timestamp,535521,ok,63,35,1,499,5332,91,14,-4,71.1,72.9,71.1,73.35,0.0913785946135,-0.0112673176251,-0.004,-0.015,426.07714158,46.85302,-124.95792
5,13,3731236391.62,7,2432,1600,129,129,128,127,3732270748.87,165,163,162,161,59,-9,2894,3732270811.99,3731236200.0,30,0,0,100,0,-45,3731236391.62,port_timestamp,536306,ok,63,35,1,499,5340,-12,-52,0,74.25,73.35,72.9,72.45,-0.0256851574658,-0.0467789769657,0.0,-0.009,426.853627961,46.85302,-124.95792
5,14,3731239991.66,7,2432,1600,125,127,127,124,3732270748.88,157,166,158,161,60,-1,2888,3732270811.99,3731239800.0,30,0,0,100,0,-45,3731239991.66,port_timestamp,536994,ok,63,35,1,511,5347,-37,-96,-11,70.65,74.7,71.1,72.45,-0.0617057184696,-0.0823249920021,-0.011,-0.001,427.534163944,46.85302,-124.95792
5,15,3731243591.97,7,2432,1600,127,128,127,130,3732270748.88,161,166,161,151,61,12,2885,3732270811.99,3731243400.0,30,0,0,100,0,-45,3731243591.97,port_timestamp,537108,ok,61,35,1,515,5348,7,-49,-15,72.45,74.7,72.45,67.95,-0.0065851973049,-0.0490574681007,-0.015,0.012,427.646926957,46.85302,-124.95792
5,16,3731247191.75,7,2432,1600,131,127,130,127,3732270748.88,169,164,165,166,62,-20,2883,3732270812.0,3731247000.0,30,0,0,100,0,-45,3731247191.75,port_timestamp,537537,ok,62,35,1,516,5352,5,-96,-11,76.05,73.8,74.25,74.7,-0.0212876689416,-0.0937434539103,-0.011,-0.02,428.071271428,46.85302,-124.95792
5,17,3731250791.79,7,2432,1600,128,128,125,128,3732270748.89,153,166,142,162,63,-10,2886,3732270812.0,3731250600.0,30,0,0,100,0,-45,3731250791.79,port_timestamp,536976,ok,62,35,1,519,5346,-17,-108,6,68.85,74.7,63.9,72.9,-0.0457214459063,-0.0993103689664,0.006,-0.01,427.516359252,46.85302,-124.95792
5,18,3731254391.83,7,2432,1600,130,127,127,129,3732270748.89,135,164,127,164,64,0,2891,3732270812.0,3731254200.0,30,0,0,100,0,-45,3731254391.83,port_timestamp,537007,ok,61,35,1,520,5347,-15,-76,8,60.75,73.8,57.15,73.8,-0.0350969963796,-0.0690594008454,0.008,0.0,427.547022887,46.85302,-124.95792
5,19,3731257991.87,7,2432,1600,129,129,126,125,3732270748.89,155,162,131,162,65,-19,2894,3732270812.0,3731257800.0,30,0,0,100,0,-45,3731257991.87,port_timestamp,536799,ok,62,35,1,518,5345,56,-81,1,69.75,72.9,58.95,72.9,0.0318694133097,-0.093173711396,0.001,-0.019,427.3412797,46.85302,-124.95792
5,20,3731261591.91,7,2432,1600,124,127,127,126,3732270748.89,158,166,134,164,66,-28,2894,3732270812.0,3731261400.0,30,0,0,100,0,-45,3731261591.91,port_timestamp,535612,ok,62,35,1,516,5333,86,-78,4,71.1,74.7,60.3,73.8,0.0615550531088,-0.0984427520784,0.004,-0.028,426.1671548,46.85302,-124.95792
5,21,3731265191.95,7,2432,1600,127,125,128,126,3732270748.9,156,160,128,164,67,-18,2899,3732270812.0,3731265000.0,30,0,0,100,0,-45,3731265191.95,port_timestamp,535486,ok,62,35,1,503,5332,70,-74,2,70.2,72.0,57.6,73.8,0.0472451734704,-0.0902435237774,0.002,-0.018,426.0425211,46.85302,-124.95792
5,22,3731268792.48,7,2432,1600,127,126,125,126,3732270748.9,154,162,122,160,68,44,2892,3732270812.0,3731268600.0,30,0,0,100,0,-43,3731268792.48,port_timestamp,534498,ok,62,35,1,497,5322,9,-127,-3,69.3,72.9,54.9,72.0,-0.0258662432521,-0.124663296363,-0.003,0.044,425.065232016,46.85302,-124.95792
6,0,3731189591.13,7,2432,1600,126,124,130,126,3732270748.77,152,155,162,157,46,7,2893,3732270811.98,3731189400.0,30,0,0,100,0,-45,3731189591.13,port_timestamp,535284,ok,60,35,1,523,5330,57,-136,-15,68.4,69.75,72.9,70.65,0.0178790000853,-0.146373977728,-0.015,0.007,409.842711359,46.85302,-124.95792
6,1,3731193191.16,7,2432,1600,130,130,129,124,3732270748.78,170,171,164,166,47,36,2897,3732270811.98,3731193000.0,30,0,0,100,0,-45,3731193191.16,port_timestamp,536241,ok,58,35,1,498,5339,62,-144,-20,76.5,76.95,73.8,74.7,0.0205157275228,-0.155431994532,-0.02,0.036,410.789333022,46.85302,-124.95792
6,2,3731196794.11,7,2432,1600,132,132,125,132,3732270748.78,163,175,160,179,48,1,2896,3732270811.98,3731196600.0,30,0,0,100,0,-45,3731196794.11,port_timestamp,537020,ok,59,35,1,500,5347,71,-51,-19,73.35,78.75,72.0,80.55,0.0544604752184,-0.0683816981289,-0.019,0.001,411.55988183,46.85302,-124.95792
6,3,3731200391.21,7,2432,1600,133,129,130,129,3732270748.79,162,161,161,162,49,13,2894,3732270811.98,3731200200.0,30,0,0,100,0,-45,3731200391.21,port_timestamp,537004,ok,59,35,1,499,5347,-6,-32,-9,72.9,72.45,72.45,72.9,-0.0144737875769,-0.0291634955583,-0.009,0.013,411.544055439,46.85302,-124.95792
6,4,3731203991.24,7,2432,1600,129,130,127,127,3732270748.79,157,170,158,163,50,22,2889,3732270811.98,3731203800.0,30,0,0,100,0,-45,3731203991.24,port_timestamp,537011,ok,59,35,1,494,5347,58,27,-11,70.65,76.5,71.1,73.35,0.0631558415273,0.0102146796805,-0.011,0.022,411.550979485,46.85302,-124.95792
6,5,3731207591.27,7,2432,1600,126,131,127,130,3732270748.79,153,166,158,165,51,-11,2895,3732270811.98,3731207400.0,30,0,0,100,0,-45,3731207591.27,port_timestamp,537340,ok,60,35,1,494,5350,20,31,5,68.85,74.7,71.1,74.25,0.0276746026123,0.0243950070763,0.005,-0.011,411.87640939,46.85302,-124.95792
6,6,3731211191.3,7,2432,1600,126,129,127,129,3732270748.8,151,160,150,159,52,4,2893,3732270811.98,3731211000.0,30,0,0,100,0,-45,3731211191.3,port_timestamp,536688,ok,60,35,1,494,5344,52,77,4,67.95,72.0,67.5,71.55,0.0709752414855,0.0599626141531,0.004,0.004,411.231483973,46.85302,-124.95792
6,7,3731214791.32,7,2432,1600,126,130,128,128,3732270748.8,153,161,154,163,53,-19,2893,3732270811.98,3731214600.0,30,0,0,100,0,-45,3731214791.32,port_timestamp,536862,ok,61,35,1,494,5345,57,99,-7,68.85,72.45,69.3,73.35,0.0817680131431,0.0797746327264,-0.007,-0.019,411.403596168,46.85302,-124.95792
6,8,3731218391.52,7,2432,1600,125,129,128,129,3732270748.8,154,159,154,159,54,4,2892,3732270811.99,3731218200.0,30,0,0,100,0,-45,3731218391.52,port_timestamp,536215,ok,62,35,1,491,5339,52,60,-3,69.3,71.55,69.3,71.55,0.0663534830941,0.0436029274394,-0.003,0.004,410.76361504,46.85302,-124.95792
6,9,3731221991.48,7,2432,1600,128,130,129,128,3732270748.86,154,160,155,156,55,-3,2888,3732270811.99,3731221800.0,30,0,0,100,0,-45,3731221991.48,port_timestamp,535818,ok,63,35,1,491,5335,94,48,-1,69.3,72.0,69.75,70.2,0.103509114934,0.0206364513803,-0.001,-0.003,410.370920847,46.85302,-124.95792
6,10,3731225591.5,7,2432,1600,127,127,129,127,3732270748.86,153,163,155,159,56,-3,2891,3732270811.99,3731225400.0,30,0,0,100,0,-45,3731225591.5,port_timestamp,535235,ok,64,35,1,490,5329,135,19,-6,68.85,73.35,69.75,71.55,0.13508065387,-0.0184178432518,-0.006,-0.003,409.794242631,46.85302,-124.95792
6,11,3731229191.54,7,2432,1600,127,126,126,127,3732270748.87,156,162,155,158,57,-6,2891,3732270811.99,3731229000.0,30,0,0,100,0,-44,3731229191.54,port_timestamp,535603,ok,63,35,1,492,5333,85,-41,8,70.2,72.9,69.75,71.1,0.0706518398011,-0.0625645069725,0.008,-0.006,410.158252396,46.85302,-124.95792
6,12,3731232791.58,7,2432,1600,127,128,126,127,3732270748.87,157,161,155,161,58,19,2892,3732270811.99,3731232600.0,30,0,0,100,0,-45,3731232791.58,port_timestamp,535521,ok,63,35,1,499,5332,86,-11,-2,70.65,72.45,69.75,72.45,0.0797702185338,-0.033966339736,-0.002,0.019,410.07714158,46.85302,-124.95792
6,13,3731236391.62,7,2432,1600,127,128,128,127,3732270748.87,161,163,161,158,59,-1,2894,3732270811.99,3731236200.0,30,0,0,100,0,-45,3731236391.62,port_timestamp,536306,ok,63,35,1,499,5340,-9,-86,1,72.45,73.35,72.45,71.1,-0.0320416707109,-0.0803139548152,0.001,-0.001,410.853627961,46.85302,-124.95792
6,14,3731239991.66,7,2432,1600,129,129,127,127,3732270748.88,159,166,157,161,60,0,2888,3732270811.99,3731239800.0,30,0,0,100,0,-45,3731239991.66,port_timestamp,536994,ok,63,35,1,511,5347,-20,-65,-15,71.55,74.7,70.65,72.45,-0.0369181193951,-0.0571143805038,-0.015,0.0,411.534163944,46.85302,-124.95792
6,15,3731243591.97,7,2432,1600,125,129,127,126,3732270748.88,161,163,160,141,61,10,2885,3732270811.99,3731243400.0,30,0,0,100,0,-45,3731243591.97,port_timestamp,537108,ok,61,35,1,515,5348,-11,-63,-6,72.45,73.35,72.0,63.45,-0.0277133725006,-0.0576365247447,-0.006,0.01,411.646926957,46.85302,-124.95792
6,16,3731247191.75,7,2432,1600,127,126,125,125,3732270748.88,157,162,156,161,62,-2,2883,3732270812.0,3731247000.0,30,0,0,100,0,-45,3731247191.75,port_timestamp,537537,ok,62,35,1,516,5352,18,-78,-10,70.65,72.9,70.2,72.45,-0.00388369374608,-0.0799557185127,-0.01,-0.002,412.071271428,46.85302,-124.95792
6,17,3731250791.79,7,2432,1600,125,127,129,128,3732270748.89,151,163,143,163,63,9,2886,3732270812.0,3731250600.0,30,0,0,100,0,-45,3731250791.79,port_timestamp,536976,ok,62,35,1,519,5346,-12,-57,5,67.95,73.35,64.35,73.35,-0.0270444981691,-0.0515906495286,0.005,0.009,411.516359252,46.85302,-124.95792
6,18,3731254391.83,7,2432,1600,124,127,126,127,3732270748.89,130,162,129,162,64,25,2891,3732270812.0,3731254200.0,30,0,0,100,0,-45,3731254391.83,port_timestamp,537007,ok,61,35,1,520,5347,0,-70,6,58.5,72.9,58.05,72.9,-0.019030769847,-0.0673634158801,0.006,0.025,411.547022887,46.85302,-124.95792
6,19,3731257991.87,7,2432,1600,125,124,128,129,3732270748.89,155,162,134,166,65,0,2894,3732270812.0,3731257800.0,30,0,0,100,0,-45,3731257991.87,port_timestamp,536799,ok,62,35,1,518,5345,73,-56,2,69.75,72.9,60.3,74.7,0.0550258035402,-0.0737371069731,0.002,0.0,411.3412797,46.85302,-124.95792
6,20,3731261591.91,7,2432,1600,130,128,129,127,3732270748.89,163,167,133,165,66,-20,2894,3732270812.0,3731261400.0,30,0,0,100,0,-45,3731261591.91,port_timestamp,535612,ok,62,35,1,516,5333,126,-68,-3,73.35,75.15,59.85,74.25,0.102767115018,-0.0996941325795,-0.003,-0.02,410.1671548,46.85302,-124.95792
6,21,3731265191.95,7,2432,1600,128,128,125,128,3732270748.9,156,163,128,164,67,-43,2899,3732270812.0,3731265000.0,30,0,0,100,0,-45,3731265191.95,port_timestamp,535486,ok,62,35,1,503,5332,115,-43,-15,70.2,73.35,57.6,73.8,0.0989781388969,-0.0726452202178,-0.015,-0.043,410.0425211,46.85302,-124.95792
6,22,3731268792.48,7,2432,1600,128,128,128,128,3732270748.9,154,163,123,160,68,9,2892,3732270812.0,3731268600.0,30,0,0,100,0,-43,3731268792.48,port_timestamp,534498,ok,62,35,1,497,5322,72,-100,-9,69.3,73.35,55.35,72.0,0.0421012708381,-0.115807957386,-0.009,0.009,409.065232016,46.85302,-124.95792
7,0,3731189591.13,7,2432,1600,130,128,128,130,3732270748.77,156,163,160,165,46,13,2893,3732270811.98,3731189400.0,30,0,0,100,0,-45,3731189591.13,port_timestamp,535284,ok,60,35,1,523,5330,90,-134,-22,70.2,73.35,72.0,74.25,0.0501797752815,-0.153420957345,-0.022,0.013,393.842711359,46.85302,-124.95792
7,1,3731193191.16,7,2432,1600,133,126,128,133,3732270748.78,173,167,159,171,47,23,2897,3732270811.98,3731193000.0,30,0,0,100,0,-45,3731193191.16,port_timestamp,536241,ok,58,35,1,498,5339,22,-87,-19,77.85,75.15,71.55,76.95,-0.00248116896183,-0.0897042016886,-0.019,0.023,394.789333022,46.85302,-124.95792
7,2,3731196794.11,7,2432,1600,129,126,130,128,3732270748.78,156,166,158,164,48,-32,2896,3732270811.98,3731196600.0,30,0,0,100,0,-45,3731196794.11,port_timestamp,537020,ok,59,35,1,500,5347,-24,-86,-28,70.2,74.7,71.1,73.8,-0.0464766883995,-0.0762359327051,-0.028,-0.032,395.55988183,46.85302,-124.95792
7,3,3731200391.21,7,2432,1600,124,125,123,126,3732270748.79,152,157,152,152,49,14,2894,3732270811.98,3731200200.0,30,0,0,100,0,-45,3731200391.21,port_timestamp,537004,ok,59,35,1,499,5347,-26,-8,-11,68.4,70.65,68.4,68.4,-0.0271956424523,-0.000630104443119,-0.011,0.014,395.544055439,46.85302,-124.95792
7,4,3731203991.24,7,2432,1600,127,125,129,126,3732270748.79,152,159,153,154,50,11,2889,3732270811.98,3731203800.0,30,0,0,100,0,-45,3731203991.24,port_timestamp,537011,ok,59,35,1,494,5347,-25,69,-2,68.4,71.55,68.85,69.3,-0.00529946110797,0.0731977848843,-0.002,0.011,395.550979485,46.85302,-124.95792
7,5,3731207591.27,7,2432,1600,128,124,126,126,3732270748.79,150,157,154,158,51,-20,2895,3732270811.98,3731207400.0,30,0,0,100,0,-45,3731207591.27,port_timestamp,537340,ok,60,35,1,494,5350,17,69,5,67.5,70.65,69.3,71.1,0.0351185884201,0.0617793229761,0.005,-0.02,395.87640939,46.85302,-124.95792
7,6,3731211191.3,7,2432,1600,127,128,126,126,3732270748.8,153,157,151,155,52,-8,2893,3732270811.98,3731211000.0,30,0,0,100,0,-45,3731211191.3,port_timestamp,536688,ok,60,35,1,494,5344,41,56,6,68.85,70.65,67.95,69.75,0.0546803308931,0.0427441389365,0.006,-0.008,395.231483973,46.85302,-124.95792
7,7,3731214791.32,7,2432,1600,127,127,126,125,3732270748.8,152,157,152,156,53,1,2893,3732270811.98,3731214600.0,30,0,0,100,0,-45,3731214791.32,port_timestamp,536862,ok,61,35,1,494,5345,80,45,-8,68.4,70.65,68.4,70.2,0.089220827336,0.021555601812,-0.008,0.001,395.403596168,46.85302,-124.95792
7,8,3731218391.52,7,2432,1600,127,125,125,126,3732270748.8,152,155,153,158,54,23,2892,3732270811.99,3731218200.0,30,0,0,100,0,-45,3731218391.52,port_timestamp,536215,ok,62,35,1,491,5339,59,33,-10,68.4,69.75,68.85,71.1,0.0657493848839,0.0157168186153,-0.01,0.023,394.76361504,46.85302,-124.95792
7,9,3731221991.48,7,2432,1600,126,126,127,127,3732270748.86,152,156,151,158,55,17,2888,3732270811.99,3731221800.0,30,0,0,100,0,-45,3731221991.48,port_timestamp,535818,ok,63,35,1,491,5335,65,-21,4,68.4,70.2,67.95,71.1,0.0568425123631,-0.0378804539077,0.004,0.017,394.370920847,46.85302,-124.95792
7,10,3731225591.5,7,2432,1600,128,126,126,127,3732270748.86,150,157,148,155,56,-5,2891,3732270811.99,3731225400.0,30,0,0,100,0,-45,3731225591.5,port_timestamp,535235,ok,64,35,1,490,5329,110,11,1,67.5,70.65,66.6,69.75,0.10884734593,-0.0193198158356,0.001,-0.005,393.794242631,46.85302,-124.95792
7,11,3731229191.54,7,2432,1600,125,127,128,124,3732270748.87,154,157,152,153,57,-5,2891,3732270811.99,3731229000.0,30,0,0,100,0,-44,3731229191.54,port_timestamp,535603,ok,63,35,1,492,5333,103,-14,7,69.3,70.65,68.4,68.85,0.0953143008255,-0.0414751016652,0.007,-0.005,394.158252396,46.85302,-124.95792
7,12,3731232791.58,7,2432,1600,129,128,127,128,3732270748.87,154,159,153,159,58,-13,2892,3732270811.99,3731232600.0,30,0,0,100,0,-45,3731232791.58,port_timestamp,535521,ok,63,35,1,499,5332,80,-31,-9,69.3,71.55,68.85,71.55,0.068558848645,-0.0515818211435,-0.009,-0.013,394.07714158,46.85302,-124.95792
7,13,3731236391.62,7,2432,1600,128,127,126,127,3732270748.87,156,161,157,153,59,13,2894,3732270811.99,3731236200.0,30,0,0,100,0,-45,3731236391.62,port_timestamp,536306,ok,63,35,1,499,5340,12,-107,1,70.2,72.45,70.65,68.85,-0.017541876901,-0.106232210533,0.001,0.013,394.853627961,46.85302,-124.95792
7,14,3731239991.66,7,2432,1600,129,127,128,128,3732270748.88,155,162,157,159,60,-3,2888,3732270811.99,3731239800.0,30,0,0,100,0,-45,3731239991.66,port_timestamp,536994,ok,63,35,1,511,5347,-22,-44,-9,69.75,72.9,70.65,71.55,-0.0331335574661,-0.0363616194584,-0.009,-0.003,395.534163944,46.85302,-124.95792
7,15,3731243591.97,7,2432,1600,129,125,129,124,3732270748.88,164,163,157,136,61,7,2885,3732270811.99,3731243400.0,30,0,0,100,0,-45,3731243591.97,port_timestamp,537108,ok,61,35,1,515,5348,-20,-43,-13,73.8,73.35,70.65,61.2,-0.0309370203003,-0.0359430212272,-0.013,0.007,395.646926957,46.85302,-124.95792
7,16,3731247191.75,7,2432,1600,129,127,125,128,3732270748.88,155,161,152,162,62,-5,2883,3732270812.0,3731247000.0,30,0,0,100,0,-45,3731247191.75,port_timestamp,537537,ok,62,35,1,516,5352,38,-65,-5,69.75,72.45,68.4,72.9,0.0188972823341,-0.0728827326627,-0.005,-0.005,396.071271428,46.85302,-124.95792
7,17,3731250791.79,7,2432,1600,128,126,126,127,3732270748.89,152,161,140,160,63,16,2886,3732270812.0,3731250600.0,30,0,0,100,0,-45,3731250791.79,port_timestamp,536976,ok,62,35,1,519,5346,-20,-43,-3,68.4,72.45,63.0,72.0,-0.0309370203003,-0.0359430212272,-0.003,0.016,395.516359252,46.85302,-124.95792
7,18,3731254391.83,7,2432,1600,128,128,128,126,3732270748.89,133,162,127,166,64,7,2891,3732270812.0,3731254200.0,30,0,4,95,0,-45,3731254391.83,port_timestamp,537007,ok,61,35,1,520,5347,30,-70,6,59.85,72.9,57.15,74.7,0.00983926553016,-0.0755194601002,0.006,0.007,395.547022887,46.85302,-124.95792
7,19,3731257991.87,7,2432,1600,128,127,128,127,3732270748.89,157,164,130,165,65,16,2894,3732270812.0,3731257800.0,30,0,0,100,0,-45,3731257991.87,port_timestamp,536799,ok,62,35,1,518,5345,78,-50,10,70.65,73.8,58.5,74.25,0.0614686849471,-0.069322440601,0.01,0.016,395.3412797,46.85302,-124.95792
7,20,3731261591.91,7,2432,1600,126,128,126,124,3732270748.89,162,165,129,165,66,3,2894,3732270812.0,3731261400.0,30,0,0,100,0,-45,3731261591.91,port_timestamp,535612,ok,62,35,1,516,5333,116,-75,-4,72.9,74.25,58.05,74.25,0.091240692908,-0.103711792761,-0.004,0.003,394.1671548,46.85302,-124.95792
7,21,3731265191.95,7,2432,1600,127,126,129,127,3732270748.9,155,162,132,161,67,-30,2899,3732270812.0,3731265000.0,30,0,0,100,0,-45,3731265191.95,port_timestamp,535486,ok,62,35,1,503,5332,145,-69,-9,69.75,72.9,59.4,72.45,0.120779602617,-0.105821961765,-0.009,-0.03,394.0425211,46.85302,-124.95792
7,22,3731268792.48,7,2432,1600,127,128,126,128,3732270748.9,154,163,122,161,68,-1,2892,3732270812.0,3731268600.0,30,0,0,100,0,-43,3731268792.48,port_timestamp,534498,ok,62,35,1,497,5322,108,-94,0,69.3,73.35,54.9,72.45,0.0783765221347,-0.119821203374,0.0,-0.001,393.065232016,46.85302,-124.95792
8,0,3731189591.13,7,2432,1600,124,131,127,128,3732270748.77,162,167,158,164,46,64,2893,3732270811.98,3731189400.0,30,0,0,100,0,-45,3731189591.13,port_timestamp,535284,ok,60,35,1,523,5330,45,-91,-28,72.9,75.15,71.1,73.8,0.0185650522646,-0.0998065069743,-0.028,0.064,377.842711359,46.85302,-124.95792
8,1,3731193191.16,7,2432,1600,122,130,128,126,3732270748.78,156,165,156,170,47,63,2897,3732270811.98,3731193000.0,30,0,0,100,0,-45,3731193191.16,port_timestamp,536241,ok,58,35,1,498,5339,-46,52,-10,70.2,74.25,70.2,76.5,-0.0301302442634,0.0625473291247,-0.01,0.063,378.789333022,46.85302,-124.95792
8,2,3731196794.11,7,2432,1600,127,131,129,127,3732270748.78,149,162,152,153,48,-35,2896,3732270811.98,3731196600.0,30,0,0,100,0,-45,3731196794.11,port_timestamp,537020,ok,59,35,1,500,5347,-78,0,-11,67.05,72.9,68.4,68.85,-0.0750620919806,0.0212057149724,-0.011,-0.035,379.55988183,46.85302,-124.95792
8,3,3731200391.21,7,2432,1600,129,128,128,128,3732270748.79,147,151,148,153,49,27,2894,3732270811.98,3731200200.0,30,0,0,100,0,-45,3731200391.21,port_timestamp,537004,ok,59,35,1,499,5347,-10,32,-8,66.15,67.95,66.6,68.85,-0.000923564624234,0.033513385809,-0.008,0.027,379.544055439,46.85302,-124.95792
8,4,3731203991.24,7,2432,1600,124,122,126,126,3732270748.79,149,148,144,151,50,3,2889,3732270811.98,3731203800.0,30,0,0,100,0,-45,3731203991.24,port_timestamp,537011,ok,59,35,1,494,5347,-36,96,-1,67.05,66.6,64.8,67.95,-0.00854470094814,0.102171366271,-0.001,0.003,379.550979485,46.85302,-124.95792
8,5,3731207591.27,7,2432,1600,127,126,128,128,3732270748.79,148,152,148,153,51,4,2895,3732270811.98,3731207400.0,30,0,0,100,0,-45,3731207591.27,port_timestamp,537340,ok,60,35,1,494,5350,22,56,4,66.6,68.4,66.6,68.85,0.0363959751542,0.0479096336093,0.004,0.004,379.87640939,46.85302,-124.95792
8,6,3731211191.3,7,2432,1600,127,129,127,129,3732270748.8,148,154,145,154,52,-7,2893,3732270811.98,3731211000.0,30,0,0,100,0,-45,3731211191.3,port_timestamp,536688,ok,60,35,1,494,5344,56,63,1,66.6,69.3,65.25,69.3,0.0710184255664,0.0454024584145,0.001,-0.007,379.231483973,46.85302,-124.95792
8,7,3731214791.32,7,2432,1600,130,129,128,127,3732270748.8,151,154,148,153,53,14,2893,3732270811.98,3731214600.0,30,0,0,100,0,-45,3731214791.32,port_timestamp,536862,ok,61,35,1,494,5345,84,-4,-5,67.95,69.3,66.6,68.85,0.0797486264934,-0.0266862618667,-0.005,0.014,379.403596168,46.85302,-124.95792
8,8,3731218391.52,7,2432,1600,126,127,128,129,3732270748.8,150,154,153,154,54,8,2892,3732270811.99,3731218200.0,30,0,0,100,0,-45,3731218391.52,port_timestamp,536215,ok,62,35,1,491,5339,85,19,-11,67.5,69.3,68.85,69.3,0.0869639282414,-0.00482443621821,-0.011,0.008,378.76361504,46.85302,-124.95792
8,9,3731221991.48,7,2432,1600,129,129,134,128,3732270748.86,149,154,159,153,55,1,2888,3732270811.99,3731221800.0,30,0,0,100,0,-45,3731221991.48,port_timestamp,535818,ok,63,35,1,491,5335,58,-25,-4,67.05,69.3,71.55,68.85,0.0490186982124,-0.0398267149733,-0.004,0.001,378.370920847,46.85302,-124.95792
8,10,3731225591.5,7,2432,1600,127,129,128,129,3732270748.86,145,154,147,152,56,-29,2891,3732270811.99,3731225400.0,30,0,0,100,0,-45,3731225591.5,port_timestamp,535235,ok,64,35,1,490,5329,93,19,4,65.25,69.3,66.15,68.4,0.094662604342,-0.00699938134358,0.004,-0.029,377.794242631,46.85302,-124.95792
8,11,3731229191.54,7,2432,1600,132,125,127,129,3732270748.87,155,153,149,153,57,-2,2891,3732270811.99,3731229000.0,30,0,0,100,0,-44,3731229191.54,port_timestamp,535603,ok,63,35,1,492,5333,78,-27,7,69.75,68.85,67.05,68.85,0.0677216521825,-0.0471887468118,0.007,-0.002,378.158252396,46.85302,-124.95792
8,12,3731232791.58,7,2432,1600,128,128,127,129,3732270748.87,150,156,151,156,58,-29,2892,3732270811.99,3731232600.0,30,0,0,100,0,-45,3731232791.58,port_timestamp,535521,ok,63,35,1,499,5332,62,-49,-10,67.5,70.2,67.95,70.2,0.0463432008866,-0.0640102158377,-0.01,-0.029,378.07714158,46.85302,-124.95792
8,13,3731236391.62,7,2432,1600,126,126,129,128,3732270748.87,153,157,158,154,59,-23,2894,3732270811.99,3731236200.0,30,0,0,100,0,-45,3731236391.62,port_timestamp,536306,ok,63,35,1,499,5340,5,-81,-8,68.85,70.65,71.1,69.3,-0.0172096468315,-0.0793084362217,-0.008,-0.023,378.853627961,46.85302,-124.95792
