bin,obs,time,deployment,bin_1_distance,cell_length,correlation_magnitude_beam1,correlation_magnitude_beam2,correlation_magnitude_beam3,correlation_magnitude_beam4,driver_timestamp,echo_intensity_beam1,echo_intensity_beam2,echo_intensity_beam3,echo_intensity_beam4,ensemble_number,error_velocity,heading,ingestion_timestamp,internal_timestamp,num_cells,percent_bad_beams,percent_good_3beam,percent_good_4beam,percent_transforms_reject,pitch,port_timestamp,preferred_timestamp,pressure,roll,salinity,sysconfig_vertical_orientation,temperature,transducer_depth,water_velocity_east,water_velocity_north,water_velocity_up,corrected_echo_intensity_beam1,corrected_echo_intensity_beam2,corrected_echo_intensity_beam3,corrected_echo_intensity_beam4,eastward_seawater_velocity,northward_seawater_velocity,upward_seawater_velocity,error_seawater_velocity,bin_depths,lat,lon
0,0,3701799178,7,210,100,122,123,121,121,3716275533,150,154,153,151,135,-4,11361,3716275535,3701799000,30,0,0,100,0,323,3701799178,port_timestamp,23391,-2,33,1,1106,232,-48,-100,-2,67.5,69.3,68.85,67.95,-0.07269132,-0.083785274,-0.002,-0.004,21.10057972,44.65628,-124.09522
0,1,3701802778,7,210,100,120,124,123,123,3716275533,153,159,159,154,137,-2,11368,3716275535,3701802600,30,0,0,100,0,317,3701802778,port_timestamp,23364,-5,33,1,1105,232,-5,10,11,68.85,71.55,71.55,69.3,-0.002183368,0.010965076,0.011,-0.002,21.07380103,44.65628,-124.09522
0,2,3701806378,7,210,100,122,123,123,123,3716275533,149,155,154,153,139,8,11366,3716275535,3701806200,30,1,0,98,0,319,3701806378,port_timestamp,23535,-2,33,1,1107,234,-7,78,11,67.05,69.75,69.3,68.85,0.013835034,0.077081722,0.011,0.008,21.24339929,44.65628,-124.09522
0,3,3701809978,7,210,100,122,122,121,121,3716275533,149,157,155,151,141,8,11356,3716275535,3701809800,30,0,0,100,0,323,3701809978,port_timestamp,23892,-7,33,1,1106,237,22,97,6,67.05,70.65,69.75,67.95,0.046820809,0.08775427,0.006,0.008,21.59747238,44.65628,-124.09522
0,4,3701813578,7,210,100,120,123,120,122,3716275533,153,157,158,155,143,4,11358,3716275535,3701813400,30,0,0,100,0,317,3701813578,port_timestamp,24289,-7,33,1,1108,241,-21,169,6,68.85,70.65,71.1,69.75,0.024348175,0.16855019,0.006,0.004,21.99121681,44.65628,-124.09522
0,5,3701817178,7,210,100,125,123,123,124,3716275533,151,155,156,153,145,7,11342,3716275535,3701817000,30,0,1,98,0,319,3701817178,port_timestamp,24702,-3,33,1,1111,245,-79,210,7,67.95,69.75,70.2,68.85,-0.020774323,0.22340418,0.007,0.007,22.40082923,44.65628,-124.09522
0,6,3701820778,7,210,100,123,124,124,123,3716275533,153,159,160,157,147,-2,11349,3716275535,3701820600,30,0,0,100,0,322,3701820778,port_timestamp,25045,-7,33,1,1116,249,-41,156,4,68.85,71.55,72,70.65,0.001626274,0.161289663,0.004,-0.002,22.74101518,44.65628,-124.09522
0,7,3701824378,7,210,100,126,125,124,126,3716275533,160,166,167,164,149,-6,11347,3716275535,3701824200,30,0,0,100,0,320,3701824378,port_timestamp,25173,-7,33,1,1117,250,-45,122,11,72,74.7,75.15,73.8,-0.011205397,0.129550913,0.011,-0.006,22.8679649,44.65628,-124.09522
0,8,3701827978,7,210,100,122,124,124,123,3716275533,157,163,162,159,151,20,11359,3716275535,3701827800,30,0,1,98,0,318,3701827978,port_timestamp,25112,-6,33,1,1118,249,-48,121,3,70.65,73.35,72.9,71.55,-0.014362952,0.12937815,0.003,0.02,22.80746544,44.65628,-124.09522
0,9,3701831578,7,210,100,122,125,123,123,3716275533,153,157,160,157,153,-3,11349,3716275535,3701831400,30,0,0,100,0,325,3701831578,port_timestamp,24975,-7,33,1,1121,248,-17,92,4,68.85,70.65,72,70.65,0.007884008,0.093224688,0.004,-0.003,22.67158952,44.65628,-124.09522
0,10,3701835178,7,210,100,124,123,123,122,3716275533,154,158,158,157,155,-6,11359,3716275535,3701835000,30,1,0,98,0,321,3701835178,port_timestamp,24631,-3,33,1,1121,245,-48,19,-1,69.3,71.1,71.1,70.65,-0.041283452,0.030994784,-0.001,-0.006,22.33041165,44.65628,-124.09522
0,11,3701838778,7,210,100,128,125,122,129,3716275533,159,157,160,158,157,-12,11360,3716275535,3701838600,30,0,0,100,0,319,3701838778,port_timestamp,24299,-3,33,1,1121,241,-22,-20,9,71.55,70.65,72,71.1,-0.026498471,-0.013484474,0.009,-0.012,22.0011348,44.65628,-124.09522
0,12,3701842378,7,210,100,123,123,124,126,3716275533,152,157,159,156,159,23,11361,3716275535,3701842200,30,0,0,100,0,324,3701842378,port_timestamp,23980,-5,33,1,1114,238,73,-17,3,68.4,70.65,71.55,70.2,0.065924875,-0.03566386,0.003,0.023,21.68475081,44.65628,-124.09522
1,0,3701799178,7,210,100,127,126,125,127,3716275533,150,153,153,150,135,5,11361,3716275535,3701799000,30,0,0,100,0,323,3701799178,port_timestamp,23391,-2,33,1,1106,232,-7,-88,-3,67.5,68.85,68.85,67.5,-0.029977941,-0.08303206,-0.003,0.005,20.10057972,44.65628,-124.09522
1,1,3701802778,7,210,100,124,125,124,125,3716275533,152,155,158,153,137,9,11368,3716275535,3701802600,30,0,1,98,0,317,3701802778,port_timestamp,23364,-5,33,1,1105,232,0,-5,8,68.4,69.75,71.1,68.85,-0.001319668,-0.004822704,0.008,0.009,20.07380103,44.65628,-124.09522
1,2,3701806378,7,210,100,124,129,126,125,3716275533,149,157,156,151,139,3,11366,3716275535,3701806200,30,0,0,100,0,319,3701806378,port_timestamp,23535,-2,33,1,1107,234,-5,65,16,67.05,70.65,70.2,67.95,0.012332979,0.064014824,0.016,0.003,20.24339929,44.65628,-124.09522
1,3,3701809978,7,210,100,126,125,127,127,3716275533,151,155,156,150,141,4,11356,3716275535,3701809800,30,0,0,100,0,323,3701809978,port_timestamp,23892,-7,33,1,1106,237,27,131,0,67.95,69.75,70.2,67.5,0.060617023,0.119229092,0,0.004,20.59747238,44.65628,-124.09522
1,4,3701813578,7,210,100,129,127,130,128,3716275533,158,160,164,159,143,2,11358,3716275535,3701813400,30,0,0,100,0,317,3701813578,port_timestamp,24289,-7,33,1,1108,241,-17,194,6,71.1,72,73.8,71.55,0.034804508,0.191608054,0.006,0.002,20.99121681,44.65628,-124.09522
1,5,3701817178,7,210,100,122,121,123,120,3716275533,156,159,163,156,145,-9,11342,3716275535,3701817000,30,0,0,100,0,319,3701817178,port_timestamp,24702,-3,33,1,1111,245,-45,220,8,70.2,71.55,73.35,70.2,0.014659397,0.224076108,0.008,-0.009,21.40082923,44.65628,-124.09522
1,6,3701820778,7,210,100,124,125,126,126,3716275533,154,158,159,156,147,5,11349,3716275535,3701820600,30,0,0,100,0,322,3701820778,port_timestamp,25045,-7,33,1,1116,249,-65,168,8,69.3,71.1,71.55,70.2,-0.018355635,0.179198411,0.008,0.005,21.74101518,44.65628,-124.09522
1,7,3701824378,7,210,100,126,124,127,125,3716275533,163,167,169,164,149,1,11347,3716275535,3701824200,30,0,0,100,0,320,3701824378,port_timestamp,25173,-7,33,1,1117,250,-46,155,7,73.35,75.15,76.05,73.8,-0.003460366,0.161644752,0.007,0.001,21.8679649,44.65628,-124.09522
1,8,3701827978,7,210,100,125,124,123,124,3716275533,157,161,161,158,151,-13,11359,3716275535,3701827800,30,0,0,100,0,318,3701827978,port_timestamp,25112,-6,33,1,1118,249,-35,146,3,70.65,72.45,72.45,71.1,0.004774267,0.150060676,0.003,-0.013,21.80746544,44.65628,-124.09522
1,9,3701831578,7,210,100,128,123,126,126,3716275533,154,156,159,155,153,-4,11349,3716275535,3701831400,30,0,0,100,0,325,3701831578,port_timestamp,24975,-7,33,1,1121,248,-18,101,1,69.3,70.2,71.55,69.75,0.009294803,0.1021695,0.001,-0.004,21.67158952,44.65628,-124.09522
1,10,3701835178,7,210,100,123,126,125,128,3716275533,153,158,158,156,155,2,11359,3716275535,3701835000,30,0,0,100,0,321,3701835178,port_timestamp,24631,-3,33,1,1121,245,-18,34,-1,68.85,71.1,71.1,70.2,-0.00838827,0.037545132,-0.001,0.002,21.33041165,44.65628,-124.09522
1,11,3701838778,7,210,100,125,124,125,124,3716275533,156,156,161,155,157,4,11360,3716275535,3701838600,30,0,0,100,0,319,3701838778,port_timestamp,24299,-3,33,1,1121,241,-17,2,7,70.2,70.2,72.45,69.75,-0.015869375,0.006415836,0.007,0.004,21.0011348,44.65628,-124.09522
1,12,3701842378,7,210,100,127,125,124,125,3716275533,153,156,157,154,159,5,11361,3716275535,3701842200,30,0,0,100,0,324,3701842378,port_timestamp,23980,-5,33,1,1114,238,75,-17,5,68.85,70.2,70.65,69.3,0.06785396,-0.036191713,0.005,0.005,20.68475081,44.65628,-124.09522
2,0,3701799178,7,210,100,122,125,124,126,3716275533,144,148,147,144,135,1,11361,3716275535,3701799000,30,0,0,100,0,323,3701799178,port_timestamp,23391,-2,33,1,1106,232,0,-100,2,64.8,66.6,66.15,64.8,-0.026393358,-0.096454086,0.002,0.001,19.10057972,44.65628,-124.09522
2,1,3701802778,7,210,100,123,127,125,127,3716275533,148,149,151,147,137,-1,11368,3716275535,3701802600,30,0,0,100,0,317,3701802778,port_timestamp,23364,-5,33,1,1105,232,-1,-28,14,66.6,67.05,67.95,66.15,-0.008354681,-0.02674321,0.014,-0.001,19.07380103,44.65628,-124.09522
2,2,3701806378,7,210,100,126,126,125,125,3716275533,143,149,148,144,139,3,11366,3716275535,3701806200,30,0,0,100,0,319,3701806378,port_timestamp,23535,-2,33,1,1107,234,14,60,14,64.35,67.05,66.6,64.8,0.029339587,0.054177381,0.014,0.003,19.24339929,44.65628,-124.09522
2,3,3701809978,7,210,100,125,127,125,125,3716275533,144,149,150,145,141,6,11356,3716275535,3701809800,30,0,0,100,0,323,3701809978,port_timestamp,23892,-7,33,1,1106,237,31,148,5,64.8,67.05,67.5,65.25,0.068961944,0.134570614,0.005,0.006,19.59747238,44.65628,-124.09522
2,4,3701813578,7,210,100,124,125,123,124,3716275533,151,154,155,151,143,9,11358,3716275535,3701813400,30,0,0,100,0,317,3701813578,port_timestamp,24289,-7,33,1,1108,241,-23,184,7,67.95,69.3,69.75,67.95,0.026377986,0.183546185,0.007,0.009,19.99121681,44.65628,-124.09522
2,5,3701817178,7,210,100,129,128,130,127,3716275533,161,163,167,161,145,11,11342,3716275535,3701817000,30,0,0,100,0,319,3701817178,port_timestamp,24702,-3,33,1,1111,245,-48,208,16,72.45,73.35,75.15,72.45,0.008598651,0.213293374,0.016,0.011,20.40082923,44.65628,-124.09522
2,6,3701820778,7,210,100,127,126,126,125,3716275533,148,151,152,149,147,-2,11349,3716275535,3701820600,30,0,0,100,0,322,3701820778,port_timestamp,25045,-7,33,1,1116,249,-50,158,6,66.6,67.95,68.4,67.05,-0.006526758,0.165594086,0.006,-0.002,20.74101518,44.65628,-124.09522
2,7,3701824378,7,210,100,126,126,125,125,3716275533,157,161,162,158,149,-15,11347,3716275535,3701824200,30,0,0,100,0,320,3701824378,port_timestamp,25173,-7,33,1,1117,250,-44,160,6,70.65,72.45,72.9,71.1,-0.000211648,0.165939613,0.006,-0.015,20.8679649,44.65628,-124.09522
2,8,3701827978,7,210,100,127,124,127,125,3716275533,151,155,155,151,151,8,11359,3716275535,3701827800,30,0,0,100,0,318,3701827978,port_timestamp,25112,-6,33,1,1118,249,-39,161,-1,67.95,69.75,69.75,67.95,0.004874992,0.165584524,-0.001,0.008,20.80746544,44.65628,-124.09522
2,9,3701831578,7,210,100,125,125,126,128,3716275533,146,152,152,149,153,5,11349,3716275535,3701831400,30,0,0,100,0,325,3701831578,port_timestamp,24975,-7,33,1,1121,248,-14,137,3,65.7,68.4,68.4,67.05,0.022654327,0.135837335,0.003,0.005,20.67158952,44.65628,-124.09522
2,10,3701835178,7,210,100,126,127,125,124,3716275533,147,153,151,148,155,-6,11359,3716275535,3701835000,30,1,0,98,0,321,3701835178,port_timestamp,24631,-3,33,1,1121,245,-29,25,2,66.15,68.85,67.95,66.6,-0.02137358,0.031767438,0.002,-0.006,20.33041165,44.65628,-124.09522
2,11,3701838778,7,210,100,128,128,127,128,3716275533,150,152,155,151,157,6,11360,3716275535,3701838600,30,0,0,100,0,319,3701838778,port_timestamp,24299,-3,33,1,1121,241,-41,17,4,67.5,68.4,69.75,67.95,-0.035059505,0.027218213,0.004,0.006,20.0011348,44.65628,-124.09522
2,12,3701842378,7,210,100,125,128,125,127,3716275533,146,150,150,147,159,16,11361,3716275535,3701842200,30,0,0,100,0,324,3701842378,port_timestamp,23980,-5,33,1,1114,238,49,-8,0,65.7,67.5,67.5,66.15,0.045151186,-0.020648739,0,0.016,19.68475081,44.65628,-124.09522
3,0,3701799178,7,210,100,130,130,129,130,3716275533,140,144,144,141,135,1,11361,3716275535,3701799000,30,0,0,100,0,323,3701799178,port_timestamp,23391,-2,33,1,1106,232,26,-115,1,63,64.8,64.8,63.45,-0.0052743,-0.117784472,0.001,0.001,18.10057972,44.65628,-124.09522
3,1,3701802778,7,210,100,128,126,126,125,3716275533,143,144,147,141,137,8,11368,3716275535,3701802600,30,0,0,100,0,317,3701802778,port_timestamp,23364,-5,33,1,1105,232,8,-17,10,64.35,64.8,66.15,63.45,0.003229456,-0.018508663,0.01,0.008,18.07380103,44.65628,-124.09522
3,2,3701806378,7,210,100,125,126,126,126,3716275533,138,144,142,138,139,0,11366,3716275535,3701806200,30,0,0,100,0,319,3701806378,port_timestamp,23535,-2,33,1,1107,234,-7,52,11,62.1,64.8,63.9,62.1,0.00697276,0.05200366,0.011,0,18.24339929,44.65628,-124.09522
3,3,3701809978,7,210,100,126,127,127,126,3716275533,140,144,144,140,141,4,11356,3716275535,3701809800,30,0,0,100,0,323,3701809978,port_timestamp,23892,-7,33,1,1106,237,19,143,-1,63,64.8,64.8,63,0.056067798,0.132915018,-0.001,0.004,18.59747238,44.65628,-124.09522
3,4,3701813578,7,210,100,125,125,124,125,3716275533,143,146,147,143,143,-5,11358,3716275535,3701813400,30,0,0,100,0,317,3701813578,port_timestamp,24289,-7,33,1,1108,241,-17,168,6,64.35,65.7,66.15,64.35,0.027942419,0.166529941,0.006,-0.005,18.99121681,44.65628,-124.09522
3,5,3701817178,7,210,100,129,130,128,130,3716275533,156,160,161,159,145,0,11342,3716275535,3701817000,30,0,0,100,0,319,3701817178,port_timestamp,24702,-3,33,1,1111,245,-45,218,12,70.2,72,72.45,71.55,0.014131544,0.222147022,0.012,0,19.40082923,44.65628,-124.09522
3,6,3701820778,7,210,100,127,127,126,124,3716275533,142,145,146,143,147,-6,11349,3716275535,3701820600,30,0,0,100,0,322,3701820778,port_timestamp,25045,-7,33,1,1116,249,-58,170,6,63.9,65.25,65.7,64.35,-0.011075983,0.179280012,0.006,-0.006,19.74101518,44.65628,-124.09522
3,7,3701824378,7,210,100,125,125,125,125,3716275533,151,155,156,152,149,-8,11347,3716275535,3701824200,30,0,0,100,0,320,3701824378,port_timestamp,25173,-7,33,1,1117,250,-46,172,7,67.95,69.75,70.2,68.4,0.001026384,0.17804198,0.007,-0.008,19.8679649,44.65628,-124.09522
3,8,3701827978,7,210,100,126,124,127,125,3716275533,144,148,149,145,151,-18,11359,3716275535,3701827800,30,0,0,100,0,318,3701827978,port_timestamp,25112,-6,33,1,1118,249,-26,168,-2,64.8,66.6,67.05,65.25,0.019261534,0.168905279,-0.002,-0.018,19.80746544,44.65628,-124.09522
3,9,3701831578,7,210,100,125,126,127,126,3716275533,141,148,146,142,153,-14,11349,3716275535,3701831400,30,0,0,100,0,325,3701831578,port_timestamp,24975,-7,33,1,1121,248,5,170,5,63.45,66.6,65.7,63.9,0.049690214,0.162652644,0.005,-0.014,19.67158952,44.65628,-124.09522
3,10,3701835178,7,210,100,126,126,128,126,3716275533,143,145,148,142,155,-6,11359,3716275535,3701835000,30,0,0,100,0,321,3701835178,port_timestamp,24631,-3,33,1,1121,245,-17,6,-2,64.35,65.25,66.6,63.9,-0.014813669,0.010274007,-0.002,-0.006,19.33041165,44.65628,-124.09522
3,11,3701838778,7,210,100,125,127,125,127,3716275533,145,147,149,145,157,-17,11360,3716275535,3701838600,30,0,0,100,0,319,3701838778,port_timestamp,24299,-3,33,1,1121,241,-60,-13,6,65.25,66.15,67.05,65.25,-0.061303612,0.003296532,0.006,-0.017,19.0011348,44.65628,-124.09522
3,12,3701842378,7,210,100,127,123,126,126,3716275533,143,146,148,142,159,10,11361,3716275535,3701842200,30,0,0,100,0,324,3701842378,port_timestamp,23980,-5,33,1,1114,238,31,-3,-2,64.35,65.7,66.6,63.9,0.029109047,-0.011075349,-0.002,0.01,18.68475081,44.65628,-124.09522
4,0,3701799178,7,210,100,123,123,125,125,3716275533,136,140,141,136,135,2,11361,3716275535,3701799000,30,0,0,100,0,323,3701799178,port_timestamp,23391,-2,33,1,1106,232,49,-98,2,61.2,63,63.45,61.2,0.021397011,-0.10745775,0.002,0.002,17.10057972,44.65628,-124.09522
4,1,3701802778,7,210,100,124,125,126,127,3716275533,137,141,143,138,137,28,11368,3716275535,3701802600,30,0,0,100,0,317,3701802778,port_timestamp,23364,-5,33,1,1105,232,25,-51,9,61.65,63.45,64.35,62.1,0.010652909,-0.055789923,0.009,0.028,17.07380103,44.65628,-124.09522
4,2,3701806378,7,210,100,127,126,124,123,3716275533,134,140,139,135,139,-15,11366,3716275535,3701806200,30,0,0,100,0,319,3701806378,port_timestamp,23535,-2,33,1,1107,234,-3,41,13,60.3,63,62.55,60.75,0.007927654,0.040337976,0.013,-0.015,17.24339929,44.65628,-124.09522
4,3,3701809978,7,210,100,125,125,126,126,3716275533,135,140,139,135,141,-3,11356,3716275535,3701809800,30,0,0,100,0,323,3701809978,port_timestamp,23892,-7,33,1,1106,237,6,107,1,60.75,63,62.55,60.75,0.034027389,0.101622521,0.001,-0.003,17.59747238,44.65628,-124.09522
4,4,3701813578,7,210,100,126,126,127,126,3716275533,139,142,143,139,143,-11,11358,3716275535,3701813400,30,0,0,100,0,317,3701813578,port_timestamp,24289,-7,33,1,1108,241,-33,167,5,62.55,63.9,64.35,62.55,0.012245808,0.169788222,0.005,-0.011,17.99121681,44.65628,-124.09522
4,5,3701817178,7,210,100,120,123,122,121,3716275533,146,151,151,149,145,-4,11342,3716275535,3701817000,30,0,0,100,0,319,3701817178,port_timestamp,24702,-3,33,1,1111,245,-50,206,9,65.7,67.95,67.95,67.05,0.006141713,0.211892141,0.009,-0.004,18.40082923,44.65628,-124.09522
4,6,3701820778,7,210,100,127,125,126,126,3716275533,138,141,142,138,147,6,11349,3716275535,3701820600,30,0,0,100,0,322,3701820778,port_timestamp,25045,-7,33,1,1116,249,-42,191,7,62.1,63.45,63.9,62.1,0.009899158,0.195312587,0.007,0.006,18.74101518,44.65628,-124.09522
4,7,3701824378,7,210,100,126,126,126,127,3716275533,146,150,150,146,149,4,11347,3716275535,3701824200,30,0,0,100,0,320,3701824378,port_timestamp,25173,-7,33,1,1117,250,-38,188,5,65.7,67.5,67.5,65.7,0.01296555,0.191363253,0.005,0.004,18.8679649,44.65628,-124.09522
4,8,3701827978,7,210,100,125,127,126,125,3716275533,138,142,142,140,151,2,11359,3716275535,3701827800,30,0,0,100,0,318,3701827978,port_timestamp,25112,-6,33,1,1118,249,-22,185,-2,62.1,63.9,63.9,63,0.027606455,0.184246801,-0.002,0.002,18.80746544,44.65628,-124.09522
4,9,3701831578,7,210,100,127,127,126,127,3716275533,136,141,141,137,153,1,11349,3716275535,3701831400,30,0,0,100,0,325,3701831578,port_timestamp,24975,-7,33,1,1121,248,-5,157,7,61.2,63.45,63.45,61.65,0.036613742,0.152752852,0.007,0.001,18.67158952,44.65628,-124.09522
4,10,3701835178,7,210,100,128,126,126,129,3716275533,137,140,143,139,155,-13,11359,3716275535,3701835000,30,0,0,100,0,321,3701835178,port_timestamp,24631,-3,33,1,1121,245,-34,26,-3,61.65,63,64.35,62.55,-0.025932367,0.034051613,-0.003,-0.013,18.33041165,44.65628,-124.09522
4,11,3701838778,7,210,100,128,126,129,127,3716275533,142,144,146,140,157,-2,11360,3716275535,3701838600,30,0,0,100,0,319,3701838778,port_timestamp,24299,-3,33,1,1121,241,-77,-6,11,63.9,64.8,65.7,63,-0.075853355,0.014535081,0.011,-0.002,18.0011348,44.65628,-124.09522
4,12,3701842378,7,210,100,129,130,127,129,3716275533,138,143,145,139,159,-4,11361,3716275535,3701842200,30,0,0,100,0,324,3701842378,port_timestamp,23980,-5,33,1,1114,238,28,-28,4,62.1,64.35,65.25,62.55,0.019617257,-0.03439714,0.004,-0.004,17.68475081,44.65628,-124.09522
5,0,3701799178,7,210,100,128,128,127,127,3716275533,134,139,139,134,135,-5,11361,3716275535,3701799000,30,0,0,100,0,323,3701799178,port_timestamp,23391,-2,33,1,1106,232,50,-105,5,60.3,62.55,62.55,60.3,0.020514016,-0.114473469,0.005,-0.005,16.10057972,44.65628,-124.09522
5,1,3701802778,7,210,100,127,126,125,127,3716275533,134,138,139,135,137,-1,11368,3716275535,3701802600,30,0,0,100,0,317,3701802778,port_timestamp,23364,-5,33,1,1105,232,27,-51,6,60.3,62.1,62.55,60.75,0.01258199,-0.05631779,0.006,-0.001,16.07380103,44.65628,-124.09522
5,2,3701806378,7,210,100,127,126,128,126,3716275533,133,138,136,134,139,-8,11366,3716275535,3701806200,30,0,0,100,0,319,3701806378,port_timestamp,23535,-2,33,1,1107,234,1,6,13,59.85,62.1,61.2,60.3,0.002548142,0.005523312,0.013,-0.008,16.24339929,44.65628,-124.09522
5,3,3701809978,7,210,100,125,127,125,127,3716275533,132,137,137,132,141,-6,11356,3716275535,3701809800,30,0,0,100,0,323,3701809978,port_timestamp,23892,-7,33,1,1106,237,0,100,3,59.4,61.65,61.65,59.4,0.026392647,0.09645428,0.003,-0.006,16.59747238,44.65628,-124.09522
5,4,3701813578,7,210,100,127,127,127,127,3716275533,135,138,139,135,143,-2,11358,3716275535,3701813400,30,0,0,100,0,317,3701813578,port_timestamp,24289,-7,33,1,1108,241,-13,152,7,60.75,62.1,62.55,60.75,0.027577767,0.15004155,0.007,-0.002,16.99121681,44.65628,-124.09522
5,5,3701817178,7,210,100,126,124,125,126,3716275533,139,144,143,141,145,7,11342,3716275535,3701817000,30,0,0,100,0,319,3701817178,port_timestamp,24702,-3,33,1,1111,245,-53,203,4,62.55,64.8,64.35,63.45,0.002456305,0.209790292,0.004,0.007,17.40082923,44.65628,-124.09522
5,6,3701820778,7,210,100,126,126,125,127,3716275533,134,139,140,135,147,4,11349,3716275535,3701820600,30,0,0,100,0,322,3701820778,port_timestamp,25045,-7,33,1,1116,249,-57,201,3,60.3,62.55,63,60.75,-0.001929719,0.208916912,0.003,0.004,17.74101518,44.65628,-124.09522
5,7,3701824378,7,210,100,127,126,126,126,3716275533,141,144,145,141,149,-22,11347,3716275535,3701824200,30,0,0,100,0,320,3701824378,port_timestamp,25173,-7,33,1,1117,250,-36,184,0,63.45,64.8,65.25,63.45,0.01383893,0.186977229,0,-0.022,17.8679649,44.65628,-124.09522
5,8,3701827978,7,210,100,126,126,127,127,3716275533,133,136,137,134,151,-9,11359,3716275535,3701827800,30,0,0,100,0,318,3701827978,port_timestamp,25112,-6,33,1,1118,249,-7,166,-4,59.85,61.2,61.65,60.3,0.037059994,0.161961591,-0.004,-0.009,17.80746544,44.65628,-124.09522
5,9,3701831578,7,210,100,126,125,128,127,3716275533,131,136,138,132,153,6,11349,3716275535,3701831400,30,0,0,100,0,325,3701831578,port_timestamp,24975,-7,33,1,1121,248,-23,159,0,58.95,61.2,62.1,59.4,0.019779824,0.159432614,0,0.006,17.67158952,44.65628,-124.09522
5,10,3701835178,7,210,100,126,129,129,128,3716275533,133,138,137,134,155,3,11359,3716275535,3701835000,30,0,0,100,0,321,3701835178,port_timestamp,24631,-3,33,1,1121,245,-28,33,-3,59.85,62.1,61.65,60.3,-0.018297625,0.039219854,-0.003,0.003,17.33041165,44.65628,-124.09522
5,11,3701838778,7,210,100,127,130,127,127,3716275533,137,141,140,134,157,3,11360,3716275535,3701838600,30,0,0,100,0,319,3701838778,port_timestamp,24299,-3,33,1,1121,241,-71,1,12,61.65,63.45,63,60.3,-0.068218613,0.019703322,0.012,0.003,17.0011348,44.65628,-124.09522
5,12,3701842378,7,210,100,127,125,126,126,3716275533,132,135,140,133,159,2,11361,3716275535,3701842200,30,0,0,100,0,324,3701842378,port_timestamp,23980,-5,33,1,1114,238,11,-34,4,59.4,60.75,63,59.85,0.001636471,-0.035697646,0.004,0.002,16.68475081,44.65628,-124.09522
6,0,3701799178,7,210,100,125,127,128,126,3716275533,131,135,137,132,135,1,11361,3716275535,3701799000,30,0,0,100,0,323,3701799178,port_timestamp,23391,-2,33,1,1106,232,43,-102,4,58.95,60.75,61.65,59.4,0.014554031,-0.109732311,0.004,0.001,15.10057972,44.65628,-124.09522
6,1,3701802778,7,210,100,126,127,127,126,3716275533,130,135,136,131,137,-3,11368,3716275535,3701802600,30,0,0,100,0,317,3701802778,port_timestamp,23364,-5,33,1,1105,232,10,-65,2,58.5,60.75,61.2,58.95,-0.007510274,-0.065334491,0.002,-0.003,15.07380103,44.65628,-124.09522
6,2,3701806378,7,210,100,127,128,126,126,3716275533,130,137,132,131,139,-15,11366,3716275535,3701806200,30,0,0,100,0,319,3701806378,port_timestamp,23535,-2,33,1,1107,234,23,0,10,58.5,61.65,59.4,58.95,0.02218444,-0.006070472,0.01,-0.015,15.24339929,44.65628,-124.09522
6,3,3701809978,7,210,100,127,127,128,126,3716275533,130,135,135,129,141,-16,11356,3716275535,3701809800,30,0,0,100,0,323,3701809978,port_timestamp,23892,-7,33,1,1106,237,14,97,2,58.5,60.75,60.75,58.05,0.039104467,0.089865681,0.002,-0.016,15.59747238,44.65628,-124.09522
6,4,3701813578,7,210,100,126,126,125,127,3716275533,130,134,134,130,143,2,11358,3716275535,3701813400,30,0,0,100,0,317,3701813578,port_timestamp,24289,-7,33,1,1108,241,-22,125,5,58.5,60.3,60.3,58.5,0.011770867,0.126374233,0.005,0.002,15.99121681,44.65628,-124.09522
6,5,3701817178,7,210,100,125,125,125,124,3716275533,133,137,138,134,145,1,11342,3716275535,3701817000,30,0,0,100,0,319,3701817178,port_timestamp,24702,-3,33,1,1111,245,-74,146,-2,59.85,61.65,62.1,60.3,-0.032842903,0.160353808,-0.002,0.001,16.40082923,44.65628,-124.09522
6,6,3701820778,7,210,100,125,125,127,125,3716275533,133,137,139,133,147,-2,11349,3716275535,3701820600,30,0,0,100,0,322,3701820778,port_timestamp,25045,-7,33,1,1116,249,-48,213,4,59.85,61.65,62.55,59.85,0.009918284,0.218116088,0.004,-0.002,16.74101518,44.65628,-124.09522
6,7,3701824378,7,210,100,126,126,127,127,3716275533,136,140,141,136,149,1,11347,3716275535,3701824200,30,0,0,100,0,320,3701824378,port_timestamp,25173,-7,33,1,1117,250,-24,218,-1,61.2,63,63.45,61.2,0.034386943,0.216604566,-0.001,0.001,16.8679649,44.65628,-124.09522
6,8,3701827978,7,210,100,125,126,126,126,3716275533,129,132,134,130,151,5,11359,3716275535,3701827800,30,0,0,100,0,318,3701827978,port_timestamp,25112,-6,33,1,1118,249,-15,183,-5,58.05,59.4,60.3,58.5,0.033830402,0.18047023,-0.005,0.005,16.80746544,44.65628,-124.09522
6,9,3701831578,7,210,100,126,126,128,127,3716275533,127,131,133,128,153,5,11349,3716275535,3701831400,30,0,0,100,0,325,3701831578,port_timestamp,24975,-7,33,1,1121,248,-20,165,3,57.15,58.95,59.85,57.6,0.024257011,0.164428092,0.003,0.005,16.67158952,44.65628,-124.09522
6,10,3701835178,7,210,100,127,126,126,126,3716275533,129,133,133,130,155,11,11359,3716275535,3701835000,30,0,0,100,0,321,3701835178,port_timestamp,24631,-3,33,1,1121,245,-28,50,-3,58.05,59.85,59.85,58.5,-0.013810875,0.055617081,-0.003,0.011,16.33041165,44.65628,-124.09522
6,11,3701838778,7,210,100,128,126,126,127,3716275533,132,135,137,129,157,-3,11360,3716275535,3701838600,30,0,0,100,0,319,3701838778,port_timestamp,24299,-3,33,1,1121,241,-63,28,11,59.4,60.75,61.65,58.05,-0.053376255,0.043634566,0.011,-0.003,16.0011348,44.65628,-124.09522
6,12,3701842378,7,210,100,125,124,126,128,3716275533,127,132,135,132,159,-9,11361,3716275535,3701842200,30,0,0,100,0,324,3701842378,port_timestamp,23980,-5,33,1,1114,238,-12,-26,8,57.15,59.4,60.75,59.4,-0.018436602,-0.021910995,0.008,-0.009,15.68475081,44.65628,-124.09522
7,0,3701799178,7,210,100,126,127,126,128,3716275533,128,132,133,129,135,17,11361,3716275535,3701799000,30,0,0,100,0,323,3701799178,port_timestamp,23391,-2,33,1,1106,232,60,-97,2,57.6,59.4,59.85,58.05,0.032270894,-0.109396478,0.002,0.017,14.10057972,44.65628,-124.09522
7,1,3701802778,7,210,100,125,126,128,126,3716275533,127,132,132,127,137,-13,11368,3716275535,3701802600,30,0,0,100,0,317,3701802778,port_timestamp,23364,-5,33,1,1105,232,30,-71,4,57.15,59.4,59.4,57.15,0.010196941,-0.076400408,0.004,-0.013,14.07380103,44.65628,-124.09522
7,2,3701806378,7,210,100,128,129,127,126,3716275533,127,133,130,128,139,-4,11366,3716275535,3701806200,30,0,0,100,0,319,3701806378,port_timestamp,23535,-2,33,1,1107,234,13,1,9,57.15,59.85,58.5,57.6,0.012802965,-0.002466596,0.009,-0.004,14.24339929,44.65628,-124.09522
7,3,3701809978,7,210,100,125,126,125,127,3716275533,127,130,131,127,141,-4,11356,3716275535,3701809800,30,0,0,100,0,323,3701809978,port_timestamp,23892,-7,33,1,1106,237,16,88,3,57.15,58.5,58.95,57.15,0.038658214,0.080656943,0.003,-0.004,14.59747238,44.65628,-124.09522
7,4,3701813578,7,210,100,127,128,126,125,3716275533,126,129,130,126,143,-11,11358,3716275535,3701813400,30,0,0,100,0,317,3701813578,port_timestamp,24289,-7,33,1,1108,241,-12,99,4,56.7,58.05,58.5,56.7,0.014554207,0.098656855,0.004,-0.011,14.99121681,44.65628,-124.09522
7,5,3701817178,7,210,100,127,126,125,126,3716275533,130,134,134,130,145,-6,11342,3716275535,3701817000,30,0,0,100,0,319,3701817178,port_timestamp,24702,-3,33,1,1111,245,-81,139,0,58.5,60.3,60.3,58.5,-0.041442188,0.155449494,0,-0.006,15.40082923,44.65628,-124.09522
7,6,3701820778,7,210,100,127,127,127,128,3716275533,132,136,137,132,147,7,11349,3716275535,3701820600,30,0,0,100,0,322,3701820778,port_timestamp,25045,-7,33,1,1116,249,-39,234,4,59.4,61.2,61.65,59.4,0.024141625,0.235996148,0.004,0.007,15.74101518,44.65628,-124.09522
7,7,3701824378,7,210,100,126,125,127,126,3716275533,132,135,139,132,149,2,11347,3716275535,3701824200,30,0,0,100,0,320,3701824378,port_timestamp,25173,-7,33,1,1117,250,-23,232,-1,59.4,60.75,62.55,59.4,0.039046457,0.229844239,-0.001,0.002,15.8679649,44.65628,-124.09522
7,8,3701827978,7,210,100,127,126,127,127,3716275533,126,128,130,126,151,-9,11359,3716275535,3701827800,30,0,0,100,0,318,3701827978,port_timestamp,25112,-6,33,1,1118,249,-12,191,-3,56.7,57.6,58.5,56.7,0.038835442,0.187394793,-0.003,-0.009,15.80746544,44.65628,-124.09522
7,9,3701831578,7,210,100,128,126,125,127,3716275533,125,126,128,125,153,-4,11349,3716275535,3701831400,30,0,0,100,0,325,3701831578,port_timestamp,24975,-7,33,1,1121,248,-8,147,2,56.25,56.7,57.6,56.25,0.031080849,0.143899204,0.002,-0.004,15.67158952,44.65628,-124.09522
7,10,3701835178,7,210,100,129,127,127,128,3716275533,126,129,131,126,155,10,11359,3716275535,3701835000,30,0,0,100,0,321,3701835178,port_timestamp,24631,-3,33,1,1121,245,-22,53,-4,56.7,58.05,58.95,56.7,-0.007231839,0.056927151,-0.004,0.01,15.33041165,44.65628,-124.09522
7,11,3701838778,7,210,100,125,125,128,126,3716275533,127,130,134,126,157,22,11360,3716275535,3701838600,30,0,0,100,0,319,3701838778,port_timestamp,24299,-3,33,1,1121,241,-50,37,13,57.15,58.5,60.3,56.7,-0.038461861,0.048884407,0.013,0.022,15.0011348,44.65628,-124.09522
7,12,3701842378,7,210,100,129,126,124,128,3716275533,124,130,131,127,159,4,11361,3716275535,3701842200,30,0,0,100,0,324,3701842378,port_timestamp,23980,-5,33,1,1114,238,-27,-25,3,55.8,58.5,58.95,57.15,-0.032640817,-0.016987555,0.003,0.004,14.68475081,44.65628,-124.09522
8,0,3701799178,7,210,100,126,126,125,125,3716275533,124,128,129,126,135,8,11361,3716275535,3701799000,30,0,0,100,0,323,3701799178,port_timestamp,23391,-2,33,1,1106,232,50,-87,4,55.8,57.6,58.05,56.7,0.025264821,-0.097111734,0.004,0.008,13.10057972,44.65628,-124.09522
8,1,3701802778,7,210,100,125,126,126,127,3716275533,124,130,128,125,137,5,11368,3716275535,3701802600,30,0,0,100,0,317,3701802778,port_timestamp,23364,-5,33,1,1105,232,11,-47,1,55.8,58.5,57.6,56.25,-0.001794929,-0.04823669,0.001,0.005,13.07380103,44.65628,-124.09522
8,2,3701806378,7,210,100,126,125,126,126,3716275533,122,128,127,125,139,-23,11366,3716275535,3701806200,30,0,0,100,0,319,3701806378,port_timestamp,23535,-2,33,1,1107,234,13,24,10,54.9,57.6,57.15,56.25,0.018873437,0.019717844,0.01,-0.023,13.24339929,44.65628,-124.09522
8,3,3701809978,7,210,100,127,126,127,127,3716275533,123,127,128,125,141,-5,11356,3716275535,3701809800,30,0,0,100,0,323,3701809978,port_timestamp,23892,-7,33,1,1106,237,6,69,1,55.35,57.15,57.6,56.25,0.023998183,0.064969895,0.001,-0.005,13.59747238,44.65628,-124.09522
8,4,3701813578,7,210,100,125,124,125,124,3716275533,123,126,127,123,143,-19,11358,3716275535,3701813400,30,0,0,100,0,317,3701813578,port_timestamp,24289,-7,33,1,1108,241,-12,75,9,55.35,56.7,57.15,55.35,0.008219972,0.075507828,0.009,-0.019,13.99121681,44.65628,-124.09522
8,5,3701817178,7,210,100,125,127,127,125,3716275533,127,132,132,128,145,7,11342,3716275535,3701817000,30,0,0,100,0,319,3701817178,port_timestamp,24702,-3,33,1,1111,245,-85,156,-1,57.15,59.4,59.4,57.6,-0.040813609,0.172902427,-0.001,0.007,14.40082923,44.65628,-124.09522
8,6,3701820778,7,210,100,127,126,126,127,3716275533,128,131,131,129,147,1,11349,3716275535,3701820600,30,0,0,100,0,322,3701820778,port_timestamp,25045,-7,33,1,1116,249,-42,207,3,57.6,58.95,58.95,58.05,0.014121982,0.210745272,0.003,0.001,14.74101518,44.65628,-124.09522
8,7,3701824378,7,210,100,126,127,127,125,3716275533,129,131,136,130,149,16,11347,3716275535,3701824200,30,0,0,100,0,320,3701824378,port_timestamp,25173,-7,33,1,1117,250,-5,240,0,58.05,58.95,61.2,58.5,0.058519639,0.232809905,0,0.016,14.8679649,44.65628,-124.09522
8,8,3701827978,7,210,100,126,126,127,126,3716275533,123,125,127,123,151,10,11359,3716275535,3701827800,30,0,0,100,0,318,3701827978,port_timestamp,25112,-6,33,1,1118,249,-3,206,-8,55.35,56.25,57.15,55.35,0.051475224,0.199487597,-0.008,0.01,14.80746544,44.65628,-124.09522
8,9,3701831578,7,210,100,127,124,125,127,3716275533,120,122,127,120,153,-8,11349,3716275535,3701831400,30,0,0,100,0,325,3701831578,port_timestamp,24975,-7,33,1,1121,248,30,143,0,54,54.9,57.15,54,0.066677769,0.130011827,0,-0.008,14.67158952,44.65628,-124.09522
8,10,3701835178,7,210,100,124,128,126,126,3716275533,122,126,127,123,155,-3,11359,3716275535,3701835000,30,0,0,100,0,321,3701835178,port_timestamp,24631,-3,33,1,1121,245,41,36,-5,54.9,56.7,57.15,55.35,0.049047608,0.023902556,-0.005,-0.003,14.33041165,44.65628,-124.09522
8,11,3701838778,7,210,100,129,129,127,127,3716275533,124,127,130,125,157,21,11360,3716275535,3701838600,30,0,0,100,0,319,3701838778,port_timestamp,24299,-3,33,1,1121,241,-31,42,14,55.8,57.15,58.5,56.25,-0.018815915,0.048692518,0.014,0.021,14.0011348,44.65628,-124.09522
8,12,3701842378,7,210,100,125,128,123,128,3716275533,124,127,128,122,159,14,11361,3716275535,3701842200,30,0,0,100,0,324,3701842378,port_timestamp,23980,-5,33,1,1114,238,-15,-31,4,55.8,57.15,57.6,54.9,-0.022649863,-0.02594193,0.004,0.014,13.68475081,44.65628,-124.09522
9,0,3701799178,7,210,100,126,126,126,127,3716275533,121,126,126,124,135,6,11361,3716275535,3701799000,30,0,0,100,0,323,3701799178,port_timestamp,23391,-2,33,1,1106,232,52,-74,5,54.45,56.7,56.7,55.8,0.030625039,-0.08510057,0.005,0.006,12.10057972,44.65628,-124.09522
9,1,3701802778,7,210,100,126,128,127,126,3716275533,122,127,126,123,137,4,11368,3716275535,3701802600,30,0,0,100,0,317,3701802778,port_timestamp,23364,-5,33,1,1105,232,2,-54,-3,54.9,57.15,56.7,55.35,-0.012323332,-0.052613073,-0.003,0.004,12.07380103,44.65628,-124.09522
9,2,3701806378,7,210,100,127,126,127,126,3716275533,120,125,127,122,139,10,11366,3716275535,3701806200,30,0,0,100,0,319,3701806378,port_timestamp,23535,-2,33,1,1107,234,10,14,11,54,56.25,57.15,54.9,0.013340479,0.010864236,0.011,0.01,12.24339929,44.65628,-124.09522
9,3,3701809978,7,210,100,125,126,126,127,3716275533,121,124,125,121,141,3,11356,3716275535,3701809800,30,0,0,100,0,323,3701809978,port_timestamp,23892,-7,33,1,1106,237,33,83,4,54.45,55.8,56.25,54.45,0.053735809,0.071347479,0.004,0.003,12.59747238,44.65628,-124.09522
9,4,3701813578,7,210,100,126,127,127,127,3716275533,121,125,125,121,143,-10,11358,3716275535,3701813400,30,0,0,100,0,317,3701813578,port_timestamp,24289,-7,33,1,1108,241,-21,62,6,54.45,56.25,56.25,54.45,-0.003891958,0.06534411,0.006,-0.01,12.99121681,44.65628,-124.09522
9,5,3701817178,7,210,100,126,127,126,126,3716275533,126,130,131,125,145,17,11342,3716275535,3701817000,30,0,0,100,0,319,3701817178,port_timestamp,24702,-3,33,1,1111,245,-85,82,0,56.7,58.5,58.95,56.25,-0.060344168,0.10152626,0,0.017,13.40082923,44.65628,-124.09522
9,6,3701820778,7,210,100,126,125,124,125,3716275533,123,126,127,124,147,1,11349,3716275535,3701820600,30,0,0,100,0,322,3701820778,port_timestamp,25045,-7,33,1,1116,249,-68,187,6,55.35,56.7,57.15,55.8,-0.016234661,0.198316504,0.006,0.001,13.74101518,44.65628,-124.09522
9,7,3701824378,7,210,100,126,125,127,127,3716275533,127,126,131,128,149,17,11347,3716275535,3701824200,30,1,0,98,0,320,3701824378,port_timestamp,25173,-7,33,1,1117,250,9,256,-5,57.15,56.7,58.95,57.6,0.076246062,0.244547619,-0.005,0.017,13.8679649,44.65628,-124.09522
9,8,3701827978,7,210,100,126,127,127,127,3716275533,119,122,125,120,151,1,11359,3716275535,3701827800,30,0,0,100,0,318,3701827978,port_timestamp,25112,-6,33,1,1118,249,27,237,-11,53.55,54.9,56.25,54,0.088593229,0.22147063,-0.011,0.001,13.80746544,44.65628,-124.09522
9,9,3701831578,7,210,100,126,127,127,125,3716275533,117,121,124,117,153,4,11349,3716275535,3701831400,30,0,0,100,0,325,3701831578,port_timestamp,24975,-7,33,1,1121,248,13,174,0,52.65,54.45,55.8,52.65,0.058462262,0.164399404,0,0.004,13.67158952,44.65628,-124.09522
9,10,3701835178,7,210,100,127,126,128,125,3716275533,121,124,127,119,155,18,11359,3716275535,3701835000,30,0,0,100,0,321,3701835178,port_timestamp,24631,-3,33,1,1121,245,67,28,-10,54.45,55.8,57.15,53.55,0.072014309,0.009324125,-0.01,0.018,13.33041165,44.65628,-124.09522
9,11,3701838778,7,210,100,128,125,126,128,3716275533,119,126,127,122,157,34,11360,3716275535,3701838600,30,0,0,100,0,319,3701838778,port_timestamp,24299,-3,33,1,1121,241,-1,37,10,53.55,56.7,57.15,54.9,0.008800737,0.03595201,0.01,0.034,13.0011348,44.65628,-124.09522
9,12,3701842378,7,210,100,128,127,127,124,3716275533,121,123,125,119,159,24,11361,3716275535,3701842200,30,0,0,100,0,324,3701842378,port_timestamp,23980,-5,33,1,1114,238,-5,-23,5,54.45,55.35,56.25,53.55,-0.010893023,-0.020864852,0.005,0.024,12.68475081,44.65628,-124.09522
10,0,3701799178,7,210,100,126,126,125,127,3716275533,120,125,124,121,135,3,11361,3716275535,3701799000,30,0,0,100,0,323,3701799178,port_timestamp,23391,-2,33,1,1106,232,22,-84,5,54,56.25,55.8,54.45,-0.000950522,-0.086827971,0.005,0.003,11.10057972,44.65628,-124.09522
10,1,3701802778,7,210,100,128,125,127,128,3716275533,120,124,124,122,137,-4,11368,3716275535,3701802600,30,0,0,100,0,317,3701802778,port_timestamp,23364,-5,33,1,1105,232,18,-61,1,54,55.8,55.8,54.9,0.001261787,-0.063587797,0.001,-0.004,11.07380103,44.65628,-124.09522
10,2,3701806378,7,210,100,125,127,129,124,3716275533,120,124,125,119,139,26,11366,3716275535,3701806200,30,0,0,100,0,319,3701806378,port_timestamp,23535,-2,33,1,1107,234,5,-10,7,54,55.8,56.25,53.55,0.002183368,-0.010965076,0.007,0.026,11.24339929,44.65628,-124.09522
10,3,3701809978,7,210,100,127,127,127,126,3716275533,119,122,123,118,141,-24,11356,3716275535,3701809800,30,0,0,100,0,323,3701809978,port_timestamp,23892,-7,33,1,1106,237,16,72,2,53.55,54.9,55.35,53.1,0.034435391,0.065224258,0.002,-0.024,11.59747238,44.65628,-124.09522
10,4,3701813578,7,210,100,127,127,126,128,3716275533,119,123,124,119,143,6,11358,3716275535,3701813400,30,0,0,100,0,317,3701813578,port_timestamp,24289,-7,33,1,1108,241,-10,25,6,53.55,55.35,55.8,53.55,-0.003047266,0.026752835,0.006,0.006,11.99121681,44.65628,-124.09522
10,5,3701817178,7,210,100,126,127,128,127,3716275533,125,129,130,123,145,-11,11342,3716275535,3701817000,30,0,0,100,0,319,3701817178,port_timestamp,24702,-3,33,1,1111,245,-89,48,3,56.25,58.05,58.5,55.35,-0.073175839,0.06978751,0.003,-0.011,12.40082923,44.65628,-124.09522
10,6,3701820778,7,210,100,126,126,125,125,3716275533,120,124,124,120,147,12,11349,3716275535,3701820600,30,0,0,100,0,322,3701820778,port_timestamp,25045,-7,33,1,1116,249,-94,186,8,54,55.8,55.8,54,-0.0415767,0.204214049,0.008,0.012,12.74101518,44.65628,-124.09522
10,7,3701824378,7,210,100,126,124,127,125,3716275533,124,124,128,124,149,1,11347,3716275535,3701824200,30,0,0,100,0,320,3701824378,port_timestamp,25173,-7,33,1,1117,250,-15,209,-6,55.8,55.8,57.6,55.8,0.04069249,0.205548343,-0.006,0.001,12.8679649,44.65628,-124.09522
10,8,3701827978,7,210,100,127,126,125,125,3716275533,117,120,123,118,151,3,11359,3716275535,3701827800,30,0,0,100,0,318,3701827978,port_timestamp,25112,-6,33,1,1118,249,52,187,-4,52.65,54,55.35,53.1,0.099510476,0.166645328,-0.004,0.003,12.80746544,44.65628,-124.09522
10,9,3701831578,7,210,100,128,127,126,128,3716275533,116,118,121,116,153,9,11349,3716275535,3701831400,30,3,0,96,0,325,3701831578,port_timestamp,24975,-7,33,1,1121,248,23,155,2,52.2,53.1,54.45,52.2,0.063093087,0.143433826,0.002,0.009,12.67158952,44.65628,-124.09522
10,10,3701835178,7,210,100,127,126,130,127,3716275533,117,121,124,118,155,-5,11359,3716275535,3701835000,30,0,1,98,0,321,3701835178,port_timestamp,24631,-3,33,1,1121,245,71,49,-7,52.65,54.45,55.8,53.1,0.081414936,0.028523818,-0.007,-0.005,12.33041165,44.65628,-124.09522
10,11,3701838778,7,210,100,122,132,129,126,3716275533,119,127,126,117,157,11,11360,3716275535,3701838600,30,0,0,100,0,319,3701838778,port_timestamp,24299,-3,33,1,1121,241,15,32,8,53.55,57.15,56.7,52.65,0.022913789,0.026906473,0.008,0.011,12.0011348,44.65628,-124.09522
10,12,3701842378,7,210,100,126,127,123,126,3716275533,118,122,123,117,159,4,11361,3716275535,3701842200,30,0,0,100,0,324,3701842378,port_timestamp,23980,-5,33,1,1114,238,2,-5,10,53.1,54.9,55.35,52.65,0.000609453,-0.005350567,0.01,0.004,11.68475081,44.65628,-124.09522
11,0,3701799178,7,210,100,127,128,127,125,3716275533,119,123,123,120,135,14,11361,3716275535,3701799000,30,0,0,100,0,323,3701799178,port_timestamp,23391,-2,33,1,1106,232,49,-64,5,53.55,55.35,55.35,54,0.030370753,-0.07466336,0.005,0.014,10.10057972,44.65628,-124.09522
11,1,3701802778,7,210,100,125,126,125,127,3716275533,118,122,122,119,137,1,11368,3716275535,3701802600,30,0,0,100,0,317,3701802778,port_timestamp,23364,-5,33,1,1105,232,2,-32,-1,53.1,54.9,54.9,53.55,-0.006516793,-0.031393175,-0.001,0.001,10.07380103,44.65628,-124.09522
11,2,3701806378,7,210,100,128,126,126,126,3716275533,120,124,123,119,139,14,11366,3716275535,3701806200,30,0,0,100,0,319,3701806378,port_timestamp,23535,-2,33,1,1107,234,-9,-9,9,54,55.8,55.35,53.55,-0.01105627,-0.006305465,0.009,0.014,10.24339929,44.65628,-124.09522
11,3,3701809978,7,210,100,127,125,127,126,3716275533,119,121,122,117,141,-9,11356,3716275535,3701809800,30,0,0,100,0,323,3701809978,port_timestamp,23892,-7,33,1,1106,237,7,54,6,53.55,54.45,54.9,52.65,0.021003829,0.050237826,0.006,-0.009,10.59747238,44.65628,-124.09522
11,4,3701813578,7,210,100,124,126,128,125,3716275533,117,122,125,118,143,-7,11358,3716275535,3701813400,30,0,0,100,0,317,3701813578,port_timestamp,24289,-7,33,1,1108,241,-25,1,3,52.65,54.9,56.25,53.1,-0.023849644,0.007562705,0.003,-0.007,10.99121681,44.65628,-124.09522
11,5,3701817178,7,210,100,127,127,125,124,3716275533,124,127,127,122,145,9,11342,3716275535,3701817000,30,0,0,100,0,319,3701817178,port_timestamp,24702,-3,33,1,1111,245,-70,17,1,55.8,57.15,57.15,54.9,-0.063031246,0.034872081,0.001,0.009,11.40082923,44.65628,-124.09522
11,6,3701820778,7,210,100,126,126,125,126,3716275533,118,122,123,118,147,15,11349,3716275535,3701820600,30,0,0,100,0,322,3701820778,port_timestamp,25045,-7,33,1,1116,249,-109,139,11,53.1,54.9,55.35,53.1,-0.068449386,0.162839435,0.011,0.015,11.74101518,44.65628,-124.09522
11,7,3701824378,7,210,100,127,126,127,127,3716275533,122,125,128,122,149,9,11347,3716275535,3701824200,30,0,0,100,0,320,3701824378,port_timestamp,25173,-7,33,1,1117,250,-30,175,-6,54.9,56.25,57.6,54.9,0.017250848,0.176712785,-0.006,0.009,11.8679649,44.65628,-124.09522
11,8,3701827978,7,210,100,128,127,127,129,3716275533,116,118,121,116,151,9,11359,3716275535,3701827800,30,0,0,100,0,318,3701827978,port_timestamp,25112,-6,33,1,1118,249,50,174,-8,52.2,53.1,54.45,52.2,0.094150346,0.154634124,-0.008,0.009,11.80746544,44.65628,-124.09522
11,9,3701831578,7,210,100,128,126,124,124,3716275533,116,117,121,116,153,10,11349,3716275535,3701831400,30,0,0,100,0,325,3701831578,port_timestamp,24975,-7,33,1,1121,248,39,180,1,52.2,52.65,54.45,52.2,0.085123934,0.163324572,0.001,0.01,11.67158952,44.65628,-124.09522
11,10,3701835178,7,210,100,127,128,125,129,3716275533,114,119,118,117,155,-26,11359,3716275535,3701835000,30,0,0,100,0,321,3701835178,port_timestamp,24631,-3,33,1,1121,245,39,47,-8,51.3,53.55,53.1,52.65,0.050021713,0.035040379,-0.008,-0.026,11.33041165,44.65628,-124.09522
11,11,3701838778,7,210,100,132,125,126,127,3716275533,123,122,120,119,157,-2,11360,3716275535,3701838600,30,0,0,100,0,319,3701838778,port_timestamp,24299,-3,33,1,1121,241,9,1,7,55.35,54.9,54,53.55,0.008944812,-0.001410795,0.007,-0.002,11.0011348,44.65628,-124.09522
11,12,3701842378,7,210,100,126,126,128,126,3716275533,117,121,122,117,159,3,11361,3716275535,3701842200,30,0,0,100,0,324,3701842378,port_timestamp,23980,-5,33,1,1114,238,21,2,7,52.65,54.45,54.9,52.65,0.020783252,-0.00361337,0.007,0.003,10.68475081,44.65628,-124.09522
12,0,3701799178,7,210,100,126,127,124,127,3716275533,119,121,122,118,135,-10,11361,3716275535,3701799000,30,0,0,100,0,323,3701799178,port_timestamp,23391,-2,33,1,1106,232,50,-60,6,53.55,54.45,54.9,53.1,0.032391028,-0.071069131,0.006,-0.01,9.100579716,44.65628,-124.09522
12,1,3701802778,7,210,100,126,126,126,127,3716275533,118,121,122,118,137,4,11368,3716275535,3701802600,30,0,0,100,0,317,3701802778,port_timestamp,23364,-5,33,1,1105,232,11,-12,-6,53.1,54.45,54.9,53.1,0.007442746,-0.01447776,-0.006,0.004,9.073801035,44.65628,-124.09522
12,2,3701806378,7,210,100,125,126,124,127,3716275533,119,122,122,119,139,5,11366,3716275535,3701806200,30,0,0,100,0,319,3701806378,port_timestamp,23535,-2,33,1,1107,234,-2,5,10,53.55,54.9,54.9,53.55,-0.000609414,0.005350571,0.01,0.005,9.243399288,44.65628,-124.09522
12,3,3701809978,7,210,100,126,123,125,126,3716275533,117,122,123,116,141,1,11356,3716275535,3701809800,30,0,0,100,0,323,3701809978,port_timestamp,23892,-7,33,1,1106,237,25,54,10,52.65,54.9,55.35,52.2,0.038365599,0.04548715,0.01,0.001,9.597472382,44.65628,-124.09522
12,4,3701813578,7,210,100,127,129,124,126,3716275533,117,122,123,118,143,18,11358,3716275535,3701813400,30,0,0,100,0,317,3701813578,port_timestamp,24289,-7,33,1,1108,241,-26,-6,4,52.65,54.9,55.35,53.1,-0.026661672,0.001074831,0.004,0.018,9.99121681,44.65628,-124.09522
12,5,3701817178,7,210,100,127,127,127,129,3716275533,120,124,124,121,145,4,11342,3716275535,3701817000,30,0,0,100,0,319,3701817178,port_timestamp,24702,-3,33,1,1111,245,-66,-31,0,54,55.8,55.8,54.45,-0.071841546,-0.01248168,0,0.004,10.40082923,44.65628,-124.09522
12,6,3701820778,7,210,100,126,126,126,125,3716275533,117,121,123,117,147,19,11349,3716275535,3701820600,30,0,0,100,0,322,3701820778,port_timestamp,25045,-7,33,1,1116,249,-88,84,15,52.65,54.45,55.35,52.65,-0.062709943,0.104247125,0.015,0.019,10.74101518,44.65628,-124.09522
12,7,3701824378,7,210,100,125,127,127,128,3716275533,121,124,126,121,149,9,11347,3716275535,3701824200,30,0,0,100,0,320,3701824378,port_timestamp,25173,-7,33,1,1117,250,-38,135,1,54.45,55.8,56.7,54.45,-0.001022553,0.140242484,0.001,0.009,10.8679649,44.65628,-124.09522
12,8,3701827978,7,210,100,127,126,125,126,3716275533,115,117,119,114,151,-7,11359,3716275535,3701827800,30,0,0,100,0,318,3701827978,port_timestamp,25112,-6,33,1,1118,249,22,141,-11,51.75,52.65,53.55,51.3,0.058433574,0.130194153,-0.011,-0.007,10.80746544,44.65628,-124.09522
12,9,3701831578,7,210,100,128,130,130,129,3716275533,116,118,120,118,153,9,11349,3716275535,3701831400,30,0,0,100,0,325,3701831578,port_timestamp,24975,-7,33,1,1121,248,64,162,-1,52.2,53.1,54,53.1,0.104486828,0.13936464,-0.001,0.009,10.67158952,44.65628,-124.09522
12,10,3701835178,7,210,100,127,125,127,125,3716275533,112,116,116,113,155,-25,11359,3716275535,3701835000,30,0,0,100,0,321,3701835178,port_timestamp,24631,-3,33,1,1121,245,-4,25,-10,50.4,52.2,52.2,50.85,0.002739991,0.025169276,-0.01,-0.025,10.33041165,44.65628,-124.09522
12,11,3701838778,7,210,100,125,125,125,132,3716275533,116,118,119,117,157,-18,11360,3716275535,3701838600,30,0,0,100,0,319,3701838778,port_timestamp,24299,-3,33,1,1121,241,-11,-11,10,52.2,53.1,53.55,52.65,-0.013513162,-0.00770678,0.01,-0.018,10.0011348,44.65628,-124.09522
12,12,3701842378,7,210,100,126,127,123,128,3716275533,117,121,121,117,159,5,11361,3716275535,3701842200,30,0,0,100,0,324,3701842378,port_timestamp,23980,-5,33,1,1114,238,19,1,2,52.65,54.45,54.45,52.65,0.01859024,-0.00405006,0.002,0.005,9.684750809,44.65628,-124.09522
13,0,3701799178,7,210,100,126,125,126,125,3716275533,116,118,119,115,135,-7,11361,3716275535,3701799000,30,0,0,100,0,323,3701799178,port_timestamp,23391,-2,33,1,1106,232,37,-27,2,52.2,53.1,53.55,51.75,0.028561805,-0.035808146,0.002,-0.007,8.100579716,44.65628,-124.09522
13,1,3701802778,7,210,100,126,126,125,126,3716275533,116,119,120,116,137,-9,11368,3716275535,3701802600,30,0,0,100,0,317,3701802778,port_timestamp,23364,-5,33,1,1105,232,14,-16,-5,52.2,53.55,54,52.2,0.009280635,-0.019127724,-0.005,-0.009,8.073801035,44.65628,-124.09522
13,2,3701806378,7,210,100,127,125,127,127,3716275533,115,119,120,117,139,4,11366,3716275535,3701806200,30,0,0,100,0,319,3701806378,port_timestamp,23535,-2,33,1,1107,234,-17,-1,5,51.75,53.55,54,52.65,-0.016661128,0.00352233,0.005,0.004,8.243399288,44.65628,-124.09522
13,3,3701809978,7,210,100,127,128,127,126,3716275533,115,122,123,114,141,-42,11356,3716275535,3701809800,30,0,0,100,0,323,3701809978,port_timestamp,23892,-7,33,1,1106,237,18,46,16,51.75,54.9,55.35,51.3,0.029502388,0.039618292,0.016,-0.042,8.597472382,44.65628,-124.09522
13,4,3701813578,7,210,100,127,126,127,127,3716275533,118,121,126,118,143,-17,11358,3716275535,3701813400,30,0,0,100,0,317,3701813578,port_timestamp,24289,-7,33,1,1108,241,-30,-35,5,53.1,54.45,56.7,53.1,-0.038173711,-0.025841204,0.005,-0.017,8.99121681,44.65628,-124.09522
13,5,3701817178,7,210,100,126,125,125,122,3716275533,118,120,124,116,145,2,11342,3716275535,3701817000,30,0,0,100,0,319,3701817178,port_timestamp,24702,-3,33,1,1111,245,-67,-19,-3,53.1,54,55.8,52.2,-0.069638971,-0.00064324,-0.003,0.002,9.400829226,44.65628,-124.09522
13,6,3701820778,7,210,100,127,126,126,126,3716275533,118,121,123,117,147,6,11349,3716275535,3701820600,30,0,0,100,0,322,3701820778,port_timestamp,25045,-7,33,1,1116,249,-93,44,17,53.1,54.45,55.35,52.65,-0.078089716,0.066985045,0.017,0.006,9.741015184,44.65628,-124.09522
13,7,3701824378,7,210,100,126,127,124,125,3716275533,121,123,126,119,149,18,11347,3716275535,3701824200,30,0,0,100,0,320,3701824378,port_timestamp,25173,-7,33,1,1117,250,-51,110,7,54.45,55.35,56.7,53.55,-0.020159771,0.119559958,0.007,0.018,9.867964901,44.65628,-124.09522
13,8,3701827978,7,210,100,125,125,123,127,3716275533,114,117,120,114,151,13,11359,3716275535,3701827800,30,0,0,100,0,318,3701827978,port_timestamp,25112,-6,33,1,1118,249,-3,129,-9,51.3,52.65,54,51.3,0.031152886,0.125217801,-0.009,0.013,9.807465437,44.65628,-124.09522
13,9,3701831578,7,210,100,124,122,119,126,3716275533,113,115,119,112,153,9,11349,3716275535,3701831400,30,0,0,100,0,325,3701831578,port_timestamp,24975,-7,33,1,1121,248,58,106,-3,50.85,51.75,53.55,50.4,0.083919688,0.086933802,-0.003,0.009,9.671589524,44.65628,-124.09522
13,10,3701835178,7,210,100,125,124,123,127,3716275533,113,115,121,111,155,-16,11359,3716275535,3701835000,30,1,0,98,0,321,3701835178,port_timestamp,24631,-3,33,1,1121,245,-6,48,2,50.85,51.75,54.45,49.95,0.006881214,0.047881613,0.002,-0.016,9.330411653,44.65628,-124.09522
13,11,3701838778,7,210,100,125,128,126,124,3716275533,114,118,122,112,157,-10,11360,3716275535,3701838600,30,0,0,100,0,319,3701838778,port_timestamp,24299,-3,33,1,1121,241,-41,-2,16,51.3,53.1,54.9,50.4,-0.040074108,0.0088919,0.016,-0.01,9.001134796,44.65628,-124.09522
13,12,3701842378,7,210,100,128,128,133,125,3716275533,116,119,124,114,159,-4,11361,3716275535,3701842200,30,0,0,100,0,324,3701842378,port_timestamp,23980,-5,33,1,1114,238,-18,-23,-4,52.2,53.55,55.8,51.3,-0.023432079,-0.017433808,-0.004,-0.004,8.684750809,44.65628,-124.09522
14,0,3701799178,7,210,100,125,126,126,126,3716275533,112,115,116,112,135,-10,11361,3716275535,3701799000,30,0,0,100,0,323,3701799178,port_timestamp,23391,-2,33,1,1106,232,68,-19,0,50.4,51.75,52.2,50.4,0.06057404,-0.03627376,0,-0.01,7.100579716,44.65628,-124.09522
14,1,3701802778,7,210,100,126,127,125,126,3716275533,114,117,117,114,137,2,11368,3716275535,3701802600,30,0,0,100,0,317,3701802778,port_timestamp,23364,-5,33,1,1105,232,31,-15,-5,51.3,52.65,52.65,51.3,0.025941763,-0.022650054,-0.005,0.002,7.073801035,44.65628,-124.09522
14,2,3701806378,7,210,100,124,127,124,126,3716275533,114,119,117,114,139,9,11366,3716275535,3701806200,30,0,0,100,0,319,3701806378,port_timestamp,23535,-2,33,1,1107,234,-10,-1,7,51.3,53.55,52.65,51.3,-0.009909342,0.001674795,0.007,0.009,7.243399288,44.65628,-124.09522
14,3,3701809978,7,210,100,124,126,124,125,3716275533,114,119,119,114,141,-32,11356,3716275535,3701809800,30,0,0,100,0,323,3701809978,port_timestamp,23892,-7,33,1,1106,237,-18,43,4,51.3,53.55,53.55,51.3,-0.006012932,0.046226017,0.004,-0.032,7.597472382,44.65628,-124.09522
14,4,3701813578,7,210,100,125,126,122,125,3716275533,114,118,119,115,143,-13,11358,3716275535,3701813400,30,0,0,100,0,317,3701813578,port_timestamp,24289,-7,33,1,1108,241,-33,-40,2,51.3,53.1,53.55,51.75,-0.042386971,-0.029872139,0.002,-0.013,7.99121681,44.65628,-124.09522
14,5,3701817178,7,210,100,124,125,127,126,3716275533,114,117,120,113,145,10,11342,3716275535,3701817000,30,0,0,100,0,319,3701817178,port_timestamp,24702,-3,33,1,1111,245,-88,-18,-3,51.3,52.65,54,50.85,-0.089630443,0.005863759,-0.003,0.01,8.400829226,44.65628,-124.09522
14,6,3701820778,7,210,100,128,125,127,127,3716275533,115,118,122,115,147,2,11349,3716275535,3701820600,30,0,0,100,0,322,3701820778,port_timestamp,25045,-7,33,1,1116,249,-85,11,12,51.75,53.1,54.9,51.75,-0.079082947,0.033043721,0.012,0.002,8.741015184,44.65628,-124.09522
14,7,3701824378,7,210,100,128,128,129,127,3716275533,120,121,126,117,149,13,11347,3716275535,3701824200,30,0,0,100,0,320,3701824378,port_timestamp,25173,-7,33,1,1117,250,-52,68,8,54,54.45,56.7,52.65,-0.032209226,0.079313087,0.008,0.013,8.867964901,44.65628,-124.09522
14,8,3701827978,7,210,100,129,128,128,127,3716275533,115,117,122,112,151,1,11359,3716275535,3701827800,30,0,0,100,0,318,3701827978,port_timestamp,25112,-6,33,1,1118,249,-4,74,2,51.75,52.65,54.9,50.4,0.015672388,0.072431873,0.002,0.001,8.807465437,44.65628,-124.09522
14,9,3701831578,7,210,100,128,129,132,125,3716275533,112,114,121,109,153,0,11349,3716275535,3701831400,30,0,0,100,0,325,3701831578,port_timestamp,24975,-7,33,1,1121,248,-11,57,-2,50.4,51.3,54.45,49.05,0.004433838,0.057882131,-0.002,0,8.671589524,44.65628,-124.09522
14,10,3701835178,7,210,100,125,126,126,126,3716275533,110,114,117,109,155,-5,11359,3716275535,3701835000,30,0,0,100,0,321,3701835178,port_timestamp,24631,-3,33,1,1121,245,-42,17,4,49.5,51.3,52.65,49.05,-0.036024048,0.027482139,0.004,-0.005,8.330411653,44.65628,-124.09522
14,11,3701838778,7,210,100,128,124,121,124,3716275533,111,114,114,110,157,-8,11360,3716275535,3701838600,30,0,0,100,0,319,3701838778,port_timestamp,24299,-3,33,1,1121,241,-80,-12,22,49.95,51.3,51.3,49.5,-0.080330542,0.009539604,0.022,-0.008,8.001134796,44.65628,-124.09522
14,12,3701842378,7,210,100,124,125,120,128,3716275533,111,115,115,111,159,1,11361,3716275535,3701842200,30,0,0,100,0,324,3701842378,port_timestamp,23980,-5,33,1,1114,238,-56,-30,3,49.95,51.75,51.75,49.95,-0.061932191,-0.014156402,0.003,0.001,7.684750809,44.65628,-124.09522
15,0,3701799178,7,210,100,125,126,126,125,3716275533,111,114,115,110,135,1,11361,3716275535,3701799000,30,0,0,100,0,323,3701799178,port_timestamp,23391,-2,33,1,1106,232,80,6,-2,49.95,51.3,51.75,49.5,0.07874687,-0.015327442,-0.002,0.001,6.100579716,44.65628,-124.09522
15,1,3701802778,7,210,100,126,125,127,125,3716275533,112,115,116,112,137,-5,11368,3716275535,3701802600,30,0,0,100,0,317,3701802778,port_timestamp,23364,-5,33,1,1105,232,25,6,-4,50.4,51.75,52.2,50.4,0.025697123,-0.000811094,-0.004,-0.005,6.073801035,44.65628,-124.09522
15,2,3701806378,7,210,100,126,128,128,128,3716275533,113,119,116,113,139,4,11366,3716275535,3701806200,30,0,0,100,0,319,3701806378,port_timestamp,23535,-2,33,1,1107,234,1,-7,9,50.85,53.55,52.2,50.85,-0.000882994,-0.00701572,0.009,0.004,6.243399288,44.65628,-124.09522
15,3,3701809978,7,210,100,128,125,124,127,3716275533,114,119,119,113,141,-28,11356,3716275535,3701809800,30,0,0,100,0,323,3701809978,port_timestamp,23892,-7,33,1,1106,237,-10,11,3,51.3,53.55,53.55,50.85,-0.006742237,0.013249236,0.003,-0.028,6.597472382,44.65628,-124.09522
15,4,3701813578,7,210,100,125,124,128,125,3716275533,111,117,115,113,143,24,11358,3716275535,3701813400,30,0,0,100,0,317,3701813578,port_timestamp,24289,-7,33,1,1108,241,-7,-19,-1,49.95,52.65,51.75,50.85,-0.011766403,-0.016478828,-0.001,0.024,6.99121681,44.65628,-124.09522
15,5,3701817178,7,210,100,118,125,122,123,3716275533,117,118,119,112,145,3,11342,3716275535,3701817000,30,0,0,100,0,319,3701817178,port_timestamp,24702,-3,33,1,1111,245,-28,-3,0,52.65,53.1,53.55,50.4,-0.027798978,0.004496313,0,0.003,7.400829226,44.65628,-124.09522
15,6,3701820778,7,210,100,125,124,124,124,3716275533,112,116,118,111,147,-12,11349,3716275535,3701820600,30,0,0,100,0,322,3701820778,port_timestamp,25045,-7,33,1,1116,249,-77,-18,13,50.4,52.2,53.1,49.95,-0.079020472,0.002960568,0.013,-0.012,7.741015184,44.65628,-124.09522
15,7,3701824378,7,210,100,125,123,123,126,3716275533,115,118,121,113,149,7,11347,3716275535,3701824200,30,0,0,100,0,320,3701824378,port_timestamp,25173,-7,33,1,1117,250,-73,49,5,51.75,53.1,54.45,50.85,-0.057479228,0.06652923,0.005,0.007,7.867964901,44.65628,-124.09522
15,8,3701827978,7,210,100,124,123,120,125,3716275533,112,114,117,110,151,11,11359,3716275535,3701827800,30,0,0,100,0,318,3701827978,port_timestamp,25112,-6,33,1,1118,249,-58,39,-4,50.4,51.3,52.65,49.5,-0.04565035,0.052924905,-0.004,0.011,7.807465437,44.65628,-124.09522
15,9,3701831578,7,210,100,123,125,121,126,3716275533,108,111,113,107,153,-15,11349,3716275535,3701831400,30,0,0,100,0,325,3701831578,port_timestamp,24975,-7,33,1,1121,248,-39,55,-4,48.6,49.95,50.85,48.15,-0.023101213,0.063342986,-0.004,-0.015,7.671589524,44.65628,-124.09522
15,10,3701835178,7,210,100,126,127,123,126,3716275533,107,111,111,107,155,-25,11359,3716275535,3701835000,30,0,0,100,0,321,3701835178,port_timestamp,24631,-3,33,1,1121,245,-69,35,-5,48.15,49.95,49.95,48.15,-0.057316027,0.051969925,-0.005,-0.025,7.330411653,44.65628,-124.09522
15,11,3701838778,7,210,100,124,126,121,127,3716275533,107,110,110,108,157,7,11360,3716275535,3701838600,30,0,0,100,0,319,3701838778,port_timestamp,24299,-3,33,1,1121,241,-98,5,17,48.15,49.5,49.5,48.6,-0.093205562,0.030687508,0.017,0.007,7.001134796,44.65628,-124.09522
15,12,3701842378,7,210,100,126,127,127,125,3716275533,108,111,112,108,159,2,11361,3716275535,3701842200,30,0,0,100,0,324,3701842378,port_timestamp,23980,-5,33,1,1114,238,-94,-18,2,48.6,49.95,50.4,48.6,-0.0954177,0.007447318,0.002,0.002,6.684750809,44.65628,-124.09522
16,0,3701799178,7,210,100,128,127,127,126,3716275533,110,113,113,109,135,1,11361,3716275535,3701799000,30,0,0,100,0,323,3701799178,port_timestamp,23391,-2,33,1,1106,232,67,5,0,49.5,50.85,50.85,49.05,0.065943905,-0.012860846,0,0.001,5.100579716,44.65628,-124.09522
16,1,3701802778,7,210,100,126,127,125,126,3716275533,110,113,114,110,137,-8,11368,3716275535,3701802600,30,0,0,100,0,317,3701802778,port_timestamp,23364,-5,33,1,1105,232,28,6,-2,49.5,50.85,51.3,49.5,0.028590745,-0.001602895,-0.002,-0.008,5.073801035,44.65628,-124.09522
16,2,3701806378,7,210,100,126,126,126,128,3716275533,112,115,115,111,139,5,11366,3716275535,3701806200,30,0,0,100,0,319,3701806378,port_timestamp,23535,-2,33,1,1107,234,6,-9,11,50.4,51.75,51.75,49.95,0.003411843,-0.010264469,0.011,0.005,5.243399288,44.65628,-124.09522
16,3,3701809978,7,210,100,126,128,128,126,3716275533,113,118,118,113,141,-9,11356,3716275535,3701809800,30,0,0,100,0,323,3701809978,port_timestamp,23892,-7,33,1,1106,237,-5,6,2,50.85,53.1,53.1,50.85,-0.003239155,0.007106889,0.002,-0.009,5.597472382,44.65628,-124.09522
16,4,3701813578,7,210,100,129,130,126,129,3716275533,110,115,112,114,143,-6,11358,3716275535,3701813400,30,0,0,100,0,317,3701813578,port_timestamp,24289,-7,33,1,1108,241,26,-5,3,49.5,51.75,50.4,51.3,0.023758481,-0.011684802,0.003,-0.006,5.99121681,44.65628,-124.09522
16,5,3701817178,7,210,100,135,128,129,126,3716275533,119,116,120,116,145,7,11342,3716275535,3701817000,30,0,0,100,0,319,3701817178,port_timestamp,24702,-3,33,1,1111,245,0,21,-5,53.55,52.2,54,52.2,0.005542456,0.020255399,-0.005,0.007,6.400829226,44.65628,-124.09522
16,6,3701820778,7,210,100,125,128,128,126,3716275533,111,116,116,110,147,0,11349,3716275535,3701820600,30,0,0,100,0,322,3701820778,port_timestamp,25045,-7,33,1,1116,249,-82,6,15,49.95,52.2,52.2,49.5,-0.077508951,0.027429227,0.015,0,6.741015184,44.65628,-124.09522
16,7,3701824378,7,210,100,124,124,125,125,3716275533,112,119,121,111,149,33,11347,3716275535,3701824200,30,0,0,100,0,320,3701824378,port_timestamp,25173,-7,33,1,1117,250,-74,-6,11,50.4,53.55,54.45,49.95,-0.072959726,0.013743302,0.011,0.033,6.867964901,44.65628,-124.09522
16,8,3701827978,7,210,100,127,128,128,126,3716275533,109,114,114,109,151,22,11359,3716275535,3701827800,30,0,0,100,0,318,3701827978,port_timestamp,25112,-6,33,1,1118,249,-75,32,-5,49.05,51.3,51.3,49.05,-0.063895063,0.050659855,-0.005,0.022,6.807465437,44.65628,-124.09522
16,9,3701831578,7,210,100,127,127,126,127,3716275533,106,110,111,105,153,7,11349,3716275535,3701831400,30,0,0,100,0,325,3701831578,port_timestamp,24975,-7,33,1,1121,248,-38,41,-3,47.7,49.5,49.95,47.25,-0.025831641,0.049575461,-0.003,0.007,6.671589524,44.65628,-124.09522
16,10,3701835178,7,210,100,126,125,125,125,3716275533,104,108,108,104,155,11,11359,3716275535,3701835000,30,0,0,100,0,321,3701835178,port_timestamp,24631,-3,33,1,1121,245,-62,51,-7,46.8,48.6,48.6,46.8,-0.046341404,0.065555124,-0.007,0.011,6.330411653,44.65628,-124.09522
